,stop_code,stop_name,stop_desc,zone_id,location_type,parent_station,wheelchair_boarding,stop_lat,stop_lon
0,161,Puerta de Alcalá,Plaza de la Independencia 3,A,0,,2,40.420685289415495,-3.6891912703598195
1,162,Retiro,Avda de Méjico SN,A,0,,2,40.4196998317684,-3.68826031065316
2,164,Círculo de Bellas Artes,Calle   Gran Vía 3,A,0,,2,40.4189619874668,-3.6971469617335098
3,168,Santo Domingo,Calle  Gran Vía 56,A,0,,2,40.4215877200394,-3.7076101838572297
4,169,Santo Domingo,Calle  Gran Vía 47,A,0,,2,40.4211427174884,-3.70745560004835
5,171,Gran Vía-Plaza de España,Calle   Gran Vía 71,A,0,,2,40.423051906050404,-3.71051696529709
6,172,Ventura Rodríguez,Calle de la Princesa SN,A,0,,2,40.425993708654396,-3.7126580769669504
7,173,Ventura Rodríguez,Calle de la Princesa 17,A,0,,2,40.4260628731286,-3.71313036134631
8,1750,Plaza de España,Calle de la Princesa 2,A,0,,2,40.424791725626896,-3.71180841705806
9,193,Princesa-Rey Francisco,Calle de la Princesa 31,A,0,,2,40.4279911839452,-3.71453003324472
10,2304,Plaza San Cayetano,Plaza de San Cayetano 1,A,0,,2,40.434499309119204,-3.67023163224383
11,2307,Plaza San Cayetano,Plaza de San Cayetano 1,A,0,,2,40.4340019985026,-3.67054504133793
12,273,Prosperidad,Calle de López de Hoyos 104,,0,,0,40.4438010524072,-3.67489619473516
13,283,Gran Vía-Plaza de España,,,0,,0,40.4234034253629,-3.7104897129906296
14,3687,Moncloa,Calle del Arcipreste de Hita 3,B1,0,est_90_14,2,40.4341403665582,-3.7180849386363
15,4021,Junta Municipal Moncloa,Calle de Isaac Peral 8,A,0,est_90_14,2,40.4358069963134,-3.71809084847928
16,4022,Junta Municipal Moncloa,Calle de Isaac Peral 8,A,0,est_90_14,2,40.4358409821157,-3.71842134613126
17,4094,Gran Vía,Calle   GRAN VIA 26,A,0,,2,40.420257169995104,-3.7019716058614396
18,423,Velázquez-Villanueva,Calle de Velázquez 6,A,0,,2,40.4222103360285,-3.6842085978824
19,424,Velázquez-Goya,Calle de Velázquez 30,A,0,,2,40.4249321557231,-3.68402393107085
20,425,Velázquez-Ayala,Calle de Velázquez 54,A,0,,2,40.4276542524136,-3.68379209699484
21,426,Velázquez-Ortega y Gasset,Calle de Velázquez 80,A,0,,2,40.4301243881932,-3.6835105407310897
22,449,Serrano-Ortega y Gasset,Calle de Serrano 66,A,0,,2,40.429669792607896,-3.6872550175206
23,451,Metro Serrano,Calle de Serrano 17,A,0,,2,40.4261523539965,-3.68791482385042
24,4514,Cristo Rey,Calle de Isaac Peral 40,A,0,,2,40.438474655803205,-3.71793052606063
25,452,Museo Arqueológico,Calle de Serrano 16,A,0,,2,40.4230951840549,-3.6884377883856296
26,4816,Moncloa,Calle de la Princesa 92,A,0,est_90_14,2,40.433859496809504,-3.71834134130945
27,5135,Círculo de Bellas Artes,Calle   Gran Vía 2,A,0,,2,40.4191547408189,-3.6965547746318
28,5137,Gran Vía-Pedro Zerolo,Calle   Gran Vía 16, ,0,,2,40.4198716141839,-3.6994354354124903
29,5138,Gran Vía-Pedro Zerolo,Calle   Gran Vía 11, ,0,,2,40.4196153531909,-3.6993532186307596
30,69,Cibeles-Banco de España,PLAZA DE CIBELES 1,A,0,,2,40.4197945076749,-3.6935318960582397
31,70,Cibeles,Plaza de Cibeles 3,A,0,,0,40.419155811702794,-3.6933739507008703
32,715,Cartagena-López de Hoyos,Calle de Cartagena 140,A,0,,2,40.44261256929379,-3.6755476183979905
33,716,Cartagena-López de Hoyos,Calle de Cartagena 131,A,0,,2,40.4425749529,-3.67581845367846
34,717,Cartagena,Calle de Cartagena 106,A,0,,2,40.439695803153896,-3.67363149950633
35,718,Cartagena,Calle de Cartagena 101,A,0,,2,40.43966341811821,-3.6737781993913
36,721,Cartagena-Béjar,Calle de Cartagena 66 B,A,0,,2,40.437323951009205,-3.67095529120928
37,722,Cartagena-Béjar,Calle de Cartagena 71,A,0,,2,40.4372329778383,-3.67110766965759
38,723,Gran Vía-Callao,,,0,,0,40.4201710049336,-3.70429255297588
39,724,Gran Vía,,,0,,0,40.4200013000184,-3.70108154783931
40,725,Centro Cultural Buenavista,Avda de los Toreros 5,A,0,,2,40.4320805231887,-3.67098579805913
41,726,Cartagena-Francisco Silvela,Calle de Cartagena 6,A,0,,2,40.431137634021894,-3.6704576925327794
42,727,Parque Eva Duarte,Calle de José Ortega y Gasset 100,A,0,,2,40.4296982417158,-3.6708811106842703
43,728,Parque Eva Duarte,Calle de José Ortega y Gasset 87,A,0,,2,40.4298632875238,-3.6711609079795293
44,729,Lista,Calle de José Ortega y Gasset 58,A,0,,2,40.429925445947205,-3.6759631999983595
45,730,Lista,Calle de José Ortega y Gasset 55,A,0,,2,40.4301598046404,-3.6759419630524803
46,731,Marqués de Salamanca,Calle de José Ortega y Gasset 36,A,0,,2,40.4301324609252,-3.68061037736158
47,732,Marqués de Salamanca,Calle de José Ortega y Gasset 35,A,0,,2,40.4303844497326,-3.6806552823140604
48,733,Ortega y Gasset-Claudio Coello,Calle de José Ortega y Gasset 15,A,0,,2,40.4306496993319,-3.68608600499483
49,734,Princesa-Rey Francisco,Calle de la Princesa 34,A,0,,2,40.4283432151913,-3.7144199121997303
50,735,Argüelles,Calle de la Princesa 49,A,0,,2,40.4301528207731,-3.7160737312269596
51,736,Argüelles,Calle de la Princesa 56,A,0,,2,40.4302717913121,-3.71577398713348
52,737,Altamirano,Calle de la Princesa 77,A,0,,2,40.4322066996085,-3.7175574356474197
53,738,Altamirano,Calle de la Princesa 74,A,0,,2,40.4322630874591,-3.7171807549172504
54,743,Cristo Rey,Calle de Isaac Peral 40,A,0,,2,40.4386837404926,-3.71762765188811
55,745,Auditorio Nacional,Calle de Suero de Quiñones 15,A,0,,2,40.444986196562795,-3.67636141709255
56,9,Gran Vía-Callao,,,0,,0,40.420445146955295,-3.70439670933612
57,14,Intercambiador de Moncloa,Plaza de la Moncloa 1,A,1,,0,40.43523,-3.71919
58,1256,Hospital Gregorio Marañón,Calle del Doctor Esquerdo 48,A,0,,2,40.4184315196719,-3.66948306788969
59,1257,Hospital Gregorio Marañón,Calle del Doctor Esquerdo 81,A,0,,2,40.418334877935,-3.66905775957116
60,148,Doctor Esquerdo-Goya,Calle del Jardín de San Federico 17,A,0,,2,40.4252546533516,-3.66891399684667
61,149,Doctor Esquerdo-Goya,Calle de los Fundadores 1,A,0,,2,40.424892147932894,-3.66850517560709
62,150,Casa de la Moneda,Calle del Doctor Esquerdo 42,A,0,,2,40.4220278306811,-3.6691885847369
63,151,Casa de la Moneda,Calle del Doctor Esquerdo 49,A,0,,2,40.4227693215273,-3.6687125975305404
64,156,O Donnell-Narváez,Calle de ODonnell 31,A,0,,2,40.4217697858535,-3.6763885962137097
65,157,O Donnell-Narváez,Calle de ODonnell 24,A,0,,2,40.4215171343444,-3.67645679892832
66,158,O Donnell-Retiro,Calle de ODonnell 9,A,0,,2,40.421764256652295,-3.6804083013578905
67,174,Alcalá-Retiro,Calle de Alcalá 60,A,0,,2,40.4205252814885,-3.6857932419159503
68,175,Mártires de Alcalá,Calle de los Mártires de Alcalá 4,A,0,,2,40.4278078226297,-3.71358496044699
69,176,Arguelles,Calle de Blasco de Garay 6,A,0,,2,40.43053997868329,-3.71172744180731
70,177,Blasco de Garay-Centro Mayores,Calle de Blasco de Garay 40,A,0,,2,40.434010036019004,-3.7114692086522
71,180,Vallehermoso-Islas Filipinas,Calle de Vallehermoso 112,A,0,,2,40.4405130684806,-3.7080348570161097
72,181,Estadio Vallehermoso,Calle de Juan Vigón 23,A,0,,2,40.4425867582368,-3.7099771629330296
73,182,Melquíades Álvarez,Calle de Juan Vigón 9,A,0,,2,40.4414368371111,-3.71238456980618
74,183,General Ampudia,Calle del General Ampudia 3,A,0,,2,40.442429525661204,-3.7150319613136102
75,184,Avenida del Valle,Calle del General Ampudia 18,A,0,,2,40.443645435396704,-3.7150813048871405
76,185,Metro Guzmán el Bueno,Avda de la Reina Victoria 57,A,0,,2,40.4458535152216,-3.71420955281916
77,186,Reina Victoria,Calle de Guzmán el Bueno 139,A,0,,2,40.4459141379506,-3.7124122272225804
78,187,Guzmán el Bueno-San Francisco de Sales,Calle de Guzmán el Bueno 133,A,0,,2,40.4429667164741,-3.71265274343737
79,188,Melquíades Álvarez,Calle de Guzmán el Bueno 123,A,0,,2,40.441641345595606,-3.7128230146434102
80,189,Metro Islas Filipinas,Calle de Guzmán el Bueno 101,A,0,,2,40.4388113235219,-3.71301720573395
81,190,Guzmán El Bueno-Fernández de los Ríos,Calle de Guzmán el Bueno 63,A,0,,2,40.435909109950295,-3.7132305174211
82,191,Guzmán El Bueno-Meléndez Valdés,Calle de Guzmán el Bueno 37,A,0,,2,40.433606136623794,-3.7134206596685297
83,192,Arguelles,Calle de Guzmán el Bueno 3,A,0,,2,40.4310598664836,-3.71361927557576
84,199,Ibiza-Maiquez,Calle de Ibiza 43,A,0,,2,40.4183494716017,-3.6727591978734
85,2156,Narváez-Ibiza,Calle de Narváez 64,A,0,,2,40.418625331448204,-3.6764396741894703
86,2157,Narváez-Ibiza,Calle de Narváez 53,A,0,,2,40.4186859817816,-3.6760814949434306
87,2158,Sainz de Baranda-Narváez,Calle del Alcalde Sáinz de Baranda 22,A,0,,2,40.4168776656591,-3.67565271291673
88,2160,Sainz de Baranda-Maiquez,Calle del Alcalde Sáinz de Baranda 40,A,0,,2,40.4167221183574,-3.6729691863075096
89,2162,Metro Sainz de Baranda,Calle del Alcalde Sáinz de Baranda 64,A,0,,2,40.416501444340206,-3.66985295075633
90,3686,O Donnell-Retiro,Calle de ODonnell 4,A,0,,2,40.421661552817504,-3.6794877938842405
91,3811,Manuel Becerra,Calle del Doctor Esquerdo 3,A,0,,0,40.4275995044659,-3.66848072277211
92,4477,Galileo,Calle de Fernández de los Ríos 43,A,0,,2,40.435214599778206,-3.71043252982772
93,4478,Vallehermoso-Donoso Cortés,Calle de Vallehermoso 56,A,0,,2,40.436091905767704,-3.70840196656843
94,4479,Vallehermoso-Cea Bermúdez,Calle de Vallehermoso 90,A,0,,2,40.438083778579795,-3.7082577631719
95,5822,Doctor Esquerdo-O Donnell,Calle del Doctor Esquerdo 57,,0,,0,40.4204891362583,-3.6688679844591703
96,1049,Carrera de San Jerónimo-Cedaceros,,,0,,0,40.4166159973946,-3.6992448623092598
97,1226,Bilbao,Calle de Carranza 4,A,0,,2,40.429341312248894,-3.70295525406452
98,1228,Sagasta,Calle de Sagasta 17,A,0,,2,40.4286082953894,-3.69903357431009
99,1382,Bravo Murillo-Cristóbal Bordiú,Calle de Bravo Murillo 81,A,0,,2,40.4434956310103,-3.70424624602124
100,1386,Álvarez de Castro-Eloy Gonzalo,Calle del General Álvarez de Castro 3,A,0,,2,40.4345362584982,-3.70200707605539
101,1388,Olavide,Calle de Trafalgar 1,A,0,,2,40.431095018038704,-3.7004858407616497
102,1397,Santa Engracia-Bretón de los Herreros,Calle de Santa Engracia 112,A,0,,2,40.4395722528492,-3.7005265030243795
103,1398,Metro Ríos Rosas,Calle de Santa Engracia 126,A,0,,2,40.4418636224716,-3.7015053714030897
104,1399,Santa Engracia-María de Guzmán,Calle de Santa Engracia 149,A,0,,2,40.4441996667738,-3.7025437319675696
105,1419,Cuatro Caminos,Calle de Bravo Murillo 91,A,0,,2,40.4457036479186,-3.7041126345989297
106,1420,Cuatro Caminos,Calle de Santa Engracia 162,A,0,,2,40.4460594716322,-3.7033767375132998
107,1568,Alvarado,Calle de Bravo Murillo 122,A,0,,2,40.4492929223415,-3.7035047328260897
108,1569,Teruel,Calle de Bravo Murillo 154 B,A,0,,2,40.4516466984577,-3.7031046750136296
109,1570,Teruel,Calle de Bravo Murillo 151,A,0,,2,40.45141890914329,-3.70352686469163
110,1600,Alvarado,Calle de Bravo Murillo 117,A,0,,2,40.449083435215705,-3.7038799254945802
111,170,Gran Vía-Plaza de España,Calle   Gran Vía 74,A,0,,2,40.422993834737895,-3.70970295878423
112,1766,Santo Domingo,Calle de San Bernardo 13,A,0,,2,40.422573044961,-3.70780063049634
113,1768,Noviciado,Calle de San Bernardo 51,A,0,,2,40.4251334623991,-3.70749733836881
114,1770,San Bernardo-Dos de Mayo,Calle de San Bernardo 77,A,0,,2,40.4272108763476,-3.7066230978018906
115,1772,Metro San Bernardo,Gta de Ruiz Jiménez 1,A,0,,2,40.4293755647279,-3.70620950448422
116,1855,San Amaro,Plaza de San Amaro 9,A,0,,2,40.4550574752525,-3.6969999337434705
117,1856,General Cabrera,Calle del General Cabrera 22,A,0,,2,40.4563482251115,-3.69584120098867
118,1857,Infanta Mercedes,Calle del General Yagüe 44,A,0,,2,40.4568596416073,-3.6976863754877503
119,1858,Bravo Murillo-Lope de Haro,Calle de Bravo Murillo 227,A,0,,2,40.4566880116374,-3.70223276011779
120,1859,Estrecho,Calle de Bravo Murillo 193,A,0,,2,40.4546653052637,-3.70300635179714
121,1860,Estrecho,Calle de Ávila 2,A,0,,2,40.4527856960632,-3.70246788005825
122,1861,General Perón-Aviador Zorita,Avda del General Perón 4,A,0,,2,40.4524500769859,-3.6983783096297
123,1862,Glorieta Álvarez de Castro,Calle del General Álvarez de Castro 23,A,0,,2,40.436620996213605,-3.70288944481674
124,1864,Alonso Martínez,Calle de Santa Engracia 1,A,0,,2,40.428374095534394,-3.6960366714007504
125,1865,Alonso Martínez,Calle de Santa Engracia 4,A,0,,2,40.4284031753535,-3.6956950807910003
126,1868,Plaza Chamberí,Calle de Santa Engracia 43,A,0,,2,40.432751852108005,-3.69763801757434
127,1869,Iglesia,Calle de Santa Engracia 58,A,0,,2,40.4346930588471,-3.69842442141596
128,1870,Santa Engracia-García de Paredes,Calle de Santa Engracia 76,A,0,,2,40.436391244673,-3.6991729860442595
129,1875,Palacio Real,Calle de Bailén 12,A,0,,2,40.4149332302404,-3.71369669044073
130,1876,Palacio Real,Escal del Fotógrafo Alfonso 23,A,0,,2,40.414799846463104,-3.71341239736143
131,1877,Las Vistillas,Calle de Bailén 18,A,0,,2,40.4121658905577,-3.71395037815496
132,1878,Las Vistillas,Calle de Bailén 41,A,0,,2,40.412149181382205,-3.71373804556285
133,1879,San Francisco El Grande,G.v. de San Francisco 21,A,0,,2,40.4100575476831,-3.71398706561636
134,1880,San Francisco El Grande,Calle de Bailén 51,A,0,,2,40.4109871627577,-3.71371400337546
135,1881,La Paloma,G.v. de San Francisco 11,A,0,,2,40.40895321098429,-3.71337433375965
136,1882,La Paloma,G.v. de San Francisco 8,A,0,,2,40.409094028572795,-3.71318319183378
137,1883,Puerta de Toledo,G.v. de San Francisco 1,A,0,,2,40.4073747571841,-3.71221449024095
138,1884,Puerta de Toledo,Avda de la Gran Vía de San Francisco 4,A,0,,2,40.4077627011361,-3.7121242870706403
139,1885,Puerta de Toledo,Gta de Puerta de Toledo 3,A,0,,2,40.406469030969205,-3.7115331875975
140,1886,Plaza de la Villa,Calle  Mayor 65,A,0,,2,40.4156581344135,-3.7100857049197202
141,1887,Plaza Mayor,Calle  Mayor 21,A,0,,2,40.416345941809205,-3.7066300661975498
142,1888,Sol,Plaza de la Puerta del Sol 5,A,0,est_90_58,2,40.4167887394875,-3.70270621307019
143,278,Chueca,Calle de Hortaleza 80,A,0,,2,40.423619315199794,-3.69869872434991
144,284,Plaza Chamberí,Calle de Luchana 40,A,0,,2,40.4321271421345,-3.6981503308621204
145,3493,Carranza,Calle de Carranza 22,A,0,,2,40.4297075551481,-3.70495149155154
146,4108,Gran Vía-Pedro Zerolo,Calle   Gran Vía 24,A,0,,2,40.42002654955321,-3.6998860803180498
147,4496,Juan Zorrilla,Calle de Bravo Murillo 53,A,0,,2,40.44178842608171,-3.70424614780829
148,4675,Santa Engracia-Caracas,Calle de Santa Engracia 20,A,0,,2,40.43081149025579,-3.69671019174008
149,5376,Hortaleza,Calle de Hortaleza 20,A,0,,2,40.421276007924,-3.7003487947961498
150,5639,Santa Bárbara,Calle de Hortaleza 120,A,0,,2,40.426383530112,-3.6967143140902
151,807,Canal,Calle de José Abascal 2,A,0,,2,40.4386069914841,-3.70371188570495
152,854,Plaza de España,Plaza de España 5,A,0,,2,40.4230337021356,-3.7120138960889197
153,58,Puerta del Sol,Plaza de la Puerta del Sol 6,A,1,,0,40.41688,-3.7033099999999997
154,1065,Avenida de Daroca-Casalarreina,Avda de Daroca 303,A,0,,2,40.4078254592811,-3.61465698867279
155,1066,Avenida de Daroca-Calahorra,Avda de Daroca 318,A,0,,2,40.4063201873442,-3.61309942449698
156,1067,Avenida de Daroca-Campus Universitario,Avda de Daroca 336 B,A,0,,2,40.40443367404829,-3.6103717564515696
157,1069,San Cipriano,Calle de San Cipriano 44,A,0,,2,40.4042293592631,-3.60466591657613
158,1073,Puerta Arganda,Calle  Lago Michigan SN,B1,0,,2,40.4013186665673,-3.5961196493522998
159,1074,Metro Vicálvaro,Calle de San Cipriano 11,A,0,,2,40.4044165051064,-3.6084977625190895
160,1076,Calahorra,Calle de Calahorra 8,A,0,,2,40.4078618786424,-3.61117904933398
161,1199,Ciudad Lineal,Calle de los Misterios 1,A,0,,2,40.4382539731127,-3.63872043915532
162,1200,Pobladura del Valle-Arcos de Jalón,Calle de Arcos de Jalón SN,A,0,,2,40.422146319770796,-3.62542005029275
163,1201,Pobladura del Valle-Arcos de Jalón,Calle de Arcos de Jalón 3,A,0,,2,40.42223825108071,-3.62507904058752
164,1202,Arcos de Jalón-San Román del Valle,Calle de Arcos de Jalón 20,A,0,,2,40.4206337057401,-3.6219050404367596
165,1203,Arcos de Jalón-San Román del Valle,Calle de Arcos de Jalón SN,A,0,,2,40.420867613240205,-3.6219661302796697
166,1204,Arcos de Jalón-Amposta,Calle de Arcos de Jalón 36,A,0,,2,40.4227610317025,-3.6183173578036802
167,1205,Arcos de Jalón-Amposta,Calle de las Destilerías 20,A,0,,2,40.422831590128496,-3.6186009232752205
168,1206,Arcos de Jalón-Albericia,Calle de Arcos de Jalón 114,A,0,,2,40.4244410016272,-3.61582172902446
169,1207,Arcos de Jalón-Albericia,Calle de Arcos de Jalón SN,A,0,,2,40.424620171093295,-3.61601197858742
170,1210,Avenida de Canillejas-Toscana,Avda de Canillejas a Vicálvaro 98 D,A,0,,2,40.4195376313583,-3.6111798677960003
171,1211,Avenida de Canillejas-Toscana,Avda de Canillejas a Vicálvaro 179,A,0,,2,40.4196292720966,-3.6108860002871697
172,1213,Artilleros-Calahorra,Paseo de los Artilleros 10,A,0,,2,40.408220908995396,-3.60972232268057
173,1214,Casalarreina-Daroca,Calle de Casalarreina 21,A,0,,2,40.4087487154443,-3.6138403577641998
174,1215,Plaza de la Vicalvarada,Calle de Casalarreina 3,A,0,,2,40.409404898466896,-3.61071122602052
175,239,Ciudad Lineal,Calle de los Hermanos García Noblejas 5,A,0,,2,40.4374773981884,-3.63741168209885
176,240,Vital Aza-Albasanz,Calle de los Hermanos García Noblejas 24,A,0,,2,40.4349621307091,-3.6360910229253705
177,241,Vital Aza-Albasanz,Calle de los Hermanos García Noblejas 19,A,0,,2,40.43512616222579,-3.6357506411161697
178,242,Ascao-Julián Camarillo,Calle de los Hermanos García Noblejas SN,A,0,,2,40.432619688752105,-3.63446554362392
179,243,Ascao-Julián Camarillo,Calle de los Hermanos García Noblejas 35,A,0,,2,40.432569316596705,-3.6337930378311003
180,244,Metro García Noblejas,Calle de los Hermanos García Noblejas 70,A,0,,2,40.4294883296472,-3.6321254262131695
181,245,Metro García Noblejas,Calle de los Hermanos García Noblejas 51,A,0,,2,40.429527193793,-3.63160705020907
182,246,Castillo de Arévalo,Calle de los Hermanos García nobleja SN,A,0,,2,40.4277743746828,-3.63088333128641
183,247,Castillo de Arévalo,Calle de los Hermanos García Noblejas 69,A,0,,2,40.4281175356367,-3.63073327093651
184,248,Institución Libre de Enseñanza-Gandhi,Calle de los Hermanos García Noblejas 77,A,0,,2,40.4264754413697,-3.6295272726126497
185,250,Institución Libre Enseñanza-Centro Salud,Calle de los Hermanos García Noblejas 160,A,0,,2,40.42377178956821,-3.6280403390237
186,252,Institución Libre Enseñanza-Centro Salud,Calle de los Hermanos García Nobleja SN,A,0,,2,40.42399067936179,-3.62754725128309
187,3758,Plaza de la Vicalvarada,Plaza de la Vicalvarada 1,B1,0,,2,40.409380729240496,-3.6101688511737002
188,4192,Arcos de Jalón-Avenida de Canillejas,Calle de Arcos de Jalón 122,,0,,0,40.427284964353106,-3.61297106519085
189,4195,Avenida de Canillejas-Rusia,Avda de Canillejas a Vicálvaro 82 B,,0,,0,40.423940549192096,-3.6116558132159304
190,4196,Avenida de Canillejas-Rusia,Avda de Canillejas a Vicálvaro 151,,0,,0,40.4240051653277,-3.6113616830885102
191,4197,Avenida de Canillejas-Aquitania,Avda de Canillejas a Vicálvaro 84,,0,,0,40.421662175425894,-3.6114819722100098
192,4546,Metro VicálvaroMetro Vicálvaro,Calle del Lago Sanabria 3,A,0,,2,40.4041463690446,-3.60847176466056
193,4549,Avenida de Daroca-Calahorra,Avda de Daroca 319,A,0,,2,40.4066624536979,-3.6131143094736897
194,4552,San Cipriano,Calle de San Cipriano 44,A,0,,2,40.4039686613899,-3.60455752286717
195,4555,San Cipriano-Forges,Calle de San Cipriano 53,B1,0,,2,40.4038737511982,-3.60202288769616
196,4556,San Cipriano-Forges,Calle de San Cipriano 51,A,0,,2,40.4041160666644,-3.6022018186233598
197,4611,Avenida de Canillejas-Suecia,Avda de Canillejas a Vicálvaro 161,A,0,,2,40.421753941350204,-3.6111645206806
198,4612,Avenida de Canillejas-M40,Avda de Canillejas a Vicálvaro 102,A,0,,2,40.4168819488731,-3.61080226516931
199,4613,Avenida de Canillejas-M40,Avda de Canillejas a Vicálvaro 102,A,0,,2,40.416946003575,-3.6106142458542
200,4647,Avenida de Daroca-Campus Universitario,Avda de Daroca 317,A,0,,2,40.404703374936105,-3.61048025451894
201,4708,Institución Libre de Enseñanza-Gandhi,Calle de los Hermanos García Noblejas 128,A,0,,2,40.425962001691204,-3.62951328485121
202,5321,San Cipriano-Minerva,Calle de San Cipriano 59,A,0,,2,40.4033610268754,-3.599263223981
203,5322,San Cipriano-Minerva,Calle de San Cipriano 59,A,0,,2,40.4035281921762,-3.59916710883228
204,5650,Arcos de Jalón-Avenida de Canillejas,Calle de Arcos de Jalón 122,,0,,0,40.4271685618446,-3.6128359092829503
205,1893,Museo Sorolla,Paseo del General Martínez Campos 35,A,0,,2,40.435349625417,-3.69260668643583
206,1894,Museo Sorolla,Paseo del General Martínez Campos 40,A,0,,2,40.4351243433176,-3.6926161693719397
207,1895,Iglesia-Alonso Cano,Paseo del General Martínez Campos 3,A,0,,2,40.4352108052776,-3.6977223395916803
208,1896,Metro Alonso Cano,Calle de Alonso Cano 18,A,0,,2,40.4388236202538,-3.69768887586698
209,1897,Modesto Lafuente-Jose Abascal,Calle de Modesto Lafuente 13,A,0,,2,40.4387143178468,-3.69639072614927
210,1898,Alonso Cano-Ríos Rosas,Calle de Alonso Cano 48,A,0,,2,40.4415727590024,-3.6974578323677703
211,1899,Modesto Lafuente-Ríos Rosas,Calle de Modesto Lafuente 31,A,0,,2,40.4415447431743,-3.6961250923302598
212,1900,Alonso Cano-María de Guzmán,Calle de Alonso Cano 76,A,0,,2,40.444321754133895,-3.6972503543401802
213,1901,Modesto Lafuente-María de Guzmán,Calle de Modesto Lafuente 59,A,0,,2,40.444329770146496,-3.6959179310171004
214,1902,Alonso Cano-Fernández Villaverde,Calle de Alonso Cano SN,A,0,,2,40.4462056538304,-3.69708110914659
215,1903,Nuevos Ministerios,Calle de Orense 3,A,0,est_90_71,2,40.447286447403,-3.6956307098928796
216,1904,Basílica,Calle del General Moscardó 20,A,0,,2,40.4490271396316,-3.69680359423439
217,1905,Basílica,Calle de Orense 17,A,0,,2,40.4498552730408,-3.69542055214621
218,1906,Edgar Neville,Calle del General Moscardó 32,A,0,,2,40.4520693389804,-3.6965268585407203
219,1907,Orense-General Perón,Calle de Orense 31,A,0,,2,40.452126814623604,-3.69520805851144
220,1908,Palacio de Congresos,Calle de Orense 37,A,0,,2,40.4536141261455,-3.6950700417476803
221,1909,Julián Besteiro-Fortunata y Jacinta,Calle del General Varela 10,A,0,,2,40.4544322645005,-3.6953497160773097
222,1910,Julián Besteiro-San Germán,Calle del General Varela 22,A,0,,2,40.4560728604804,-3.69518968732528
223,1911,Orense-San Germán,Calle de Orense 55,A,0,,2,40.456205949313,-3.6947801036941703
224,1912,Joan Maragall-San Germán,Calle del General Yagüe 5,A,0,,2,40.4562778495309,-3.69255321750975
225,1913,Joan Maragall-San Germán,Calle del General Yagüe 10,A,0,,2,40.4564705099667,-3.6927258397654503
226,1914,Enrique Larreta,Calle de Enrique Larreta 12,A,0,,2,40.4683049407522,-3.68648384915913
227,1915,Agustín de Foxá,Calle de Agustín de Foxá 28,A,0,,2,40.469967195833995,-3.68570668814675
228,1916,Agustín de Foxá,Calle de Agustín de Foxá 25,A,0,,2,40.4702282304646,-3.6857447283659797
229,1917,Chamartín,Calle  Agustín de Foxa SN,,0,est_90_25,0,40.4718022627815,-3.68236209866559
230,2002,Metro Sevilla,Calle de Alcalá 32,A,0,,2,40.4183103534381,-3.69764232290745
231,28,Juzgados Plaza Castilla,Paseo de la Castellana 187,A,0,est_90_21,2,40.4650604583015,-3.6897263978160604
232,29,Juzgados Plaza Castilla,Paseo de la Castellana 214,A,0,est_90_21,0,40.4651266846777,-3.6891951604285698
233,30,Plaza Castilla,Calle de Mateo Inurria 1,A,0,,0,40.466241098726705,-3.68813420813401
234,31,Plaza Castilla,Calle de Mateo Inurria 1,A,0,,2,40.4664651874285,-3.6883252265406603
235,32,Castellana-Rosario Pino,Paseo de la Castellana 167,A,0,,2,40.461874201376794,-3.68999243036924
236,33,Castellana-Rosario Pino,Calle de Carlos Maurras 1,A,0,,0,40.4618499055306,-3.68953401416295
237,3380,Hernani,Calle del General Moscardó 12,A,0,,2,40.4477693806567,-3.69697046546368
238,34,Cuzco,Paseo de la Castellana 123,A,0,,2,40.4583272271004,-3.6903181502783
239,35,Cuzco,Paseo de la Castellana 170,A,0,,0,40.4598938448843,-3.68972082738504
240,36,Castellana-San Germán,Paseo de la Castellana 115,A,0,,2,40.4566100130494,-3.69048636484967
241,4146,Alcalá-Sevilla,,A,0,,2,40.4183344294675,-3.6988787901639197
242,4194,Enrique Larreta,Calle de Enrique Larreta 12,,0,,0,40.46837020832071,-3.6868715785466404
243,4828,Castellana-San Germán,Paseo de la Castellana 150,A,0,,2,40.4560323216233,-3.6899180284389104
244,527,Martínez Campos,Paseo del General Martínez Campos 20,A,0,,2,40.4350226240769,-3.69605794266702
245,528,Martínez Campos,Paseo del General Martínez Campos 23,A,0,,2,40.4352976942766,-3.6952590195391695
246,530,Emilio Castelar,Paseo del General Martínez Campos 51,A,0,,2,40.435387572459504,-3.6900231072251297
247,5626,Biblioteca Nacional,Paseo de Recoletos 37,A,0,,2,40.4241386416861,-3.6909737391103303
248,57,Emilio Castelar,Paseo de la Castellana 41,A,0,,2,40.4350137172231,-3.6892635971689303
249,59,Castellana-Rubén Darío,Paseo de la Castellana 22,A,0,,2,40.433020918832,-3.68880999822339
250,5907,Sol-Sevilla,Calle de Cedaceros 1,,0,,0,40.418007966791,-3.69848643077079
251,60,Castellana-Rubén Darío,Paseo de la Castellana 38,A,0,,2,40.433250509210204,-3.6880758205212496
252,61,Castellana-Ministerio Interior,Calle de Zurbarán 32,A,0,,2,40.4291726897342,-3.68979795967654
253,62,Castellana-Ministerio Interior,Paseo de la Castellana 20,A,0,,2,40.4292626043241,-3.68907087764756
254,63,Colón,Plaza de Colón 3,A,0,,2,40.425906495188606,-3.6906245009830405
255,65,Biblioteca Nacional,Paseo de Recoletos 22,A,0,,2,40.4238845871756,-3.6905206015692698
256,66,Colón,Paseo de la Castellana 2,A,0,,2,40.4261316934024,-3.68987341517404
257,68,Recoletos,Paseo de Recoletos 25,A,0,,2,40.422896648241796,-3.69151842065154
258,72,Cibeles,Paseo de Recoletos 2,A,0,,2,40.4203613685499,-3.69214452424823
259,73,Cibeles,Paseo de Recoletos 3,A,0,,2,40.4202357914327,-3.6928059394656496
260,90,Círculo de Bellas Artes,Calle de Alcalá 44,A,0,,2,40.418671117781,-3.69607829125748
261,21,Intercambiador de Plaza de Castilla,Paseo de la Castellana 189,A,1,,0,40.4669,-3.6892
262,25,Chamartín,Calle de Agustín de Foxá 40,A,1,,0,40.4721,-3.68269
263,71,Nuevos Ministerios,Calle de Raimundo Fernández Villaverde 67,A,1,,0,40.44662,-3.69246
264,1122,Casa del Reloj,Paseo de la Chopera 12,A,0,,2,40.393378155015,-3.69832805468854
265,1123,Casa del Reloj,Paseo de la Chopera 45,A,0,,2,40.3933359487267,-3.6978570284487597
266,1124,Legazpi-Matadero,Paseo de la Chopera SN,A,0,,2,40.391707533208496,-3.69598959551691
267,1125,Legazpi-Matadero,Paseo de la Chopera 69,A,0,,2,40.3920679449905,-3.6959815166003502
268,1167,Reina Sofía,Plaza del Emperador Carlos V 6,A,0,,2,40.4076008412086,-3.6935185324087296
269,1184,Metro Palos de la Frontera,Paseo de las Delicias 47,A,0,,2,40.4027854031244,-3.69353438237885
270,1918,Benavente,Plaza de Jacinto Benavente SN,A,0,,2,40.4144086321884,-3.70373126246972
271,1919,Tirso de Molina,Plaza de Tirso de Molina 1 B,A,0,,2,40.4125473678966,-3.7046194692315604
272,1920,Antón Martín,Calle de Atocha 53,A,0,,2,40.4129229323093,-3.69988406128123
273,1921,Antón Martín,Calle de Atocha 58,A,0,,2,40.4122220229783,-3.69884070696138
274,1922,Desamparados,Calle de Atocha 82,A,0,,2,40.4111981907094,-3.6968146766502596
275,1923,Desamparados,Calle de Atocha 85 A,A,0,,2,40.4112447331798,-3.6965658017476404
276,1924,Prado-Atocha,Calle de Atocha 114,A,0,,2,40.409534750613105,-3.6932735319840897
277,1925,Prado-Atocha,Calle de Atocha 127,A,0,,2,40.4098058521962,-3.69313487629616
278,1926,Palos de la Frontera,Paseo de Santa María de la Cabeza 44,A,0,,2,40.4037098590506,-3.69711470740734
279,1927,Santa María de la Cabeza,Paseo de Santa María de la Cabeza 60,A,0,,2,40.4016173569624,-3.6990074253867204
280,1928,Santa María de la Cabeza,Calle de Embajadores 114,A,0,,2,40.400306130568204,-3.6990749045813196
281,1929,Santa María de la Cabeza,Gta de Santa María de la Cabeza 5,A,0,,2,40.400916146949704,-3.6987593393288396
282,1930,Ferrocarril,Calle del Ferrocarril 13,A,0,,2,40.400765128448796,-3.69541098772368
283,1931,Jaime El Conquistador-Embajadores,Calle de Jaime el Conquistador 5,A,0,,2,40.3978614337198,-3.69811835998909
284,1932,Jaime El Conquistador-Embajadores,Calle de Jaime el Conquistador 3,A,0,,2,40.3978491038405,-3.6979219560562404
285,1933,Jaime El Conquistador ,Calle de Jaime el Conquistador 38,A,0,,2,40.3958549994715,-3.69843608382971
286,1934,Jaime El Conquistador ,Calle de Jaime el Conquistador 21,A,0,,2,40.3958970718954,-3.6981820649881696
287,1935,Glorieta de Cádiz,Calle de Marcelo Usera 4,A,0,,2,40.388170851561604,-3.6998296236512203
288,1938,San Antonio de Padua,Calle de San Antonio de Padua 22,A,0,,2,40.3859724448322,-3.7013503385384796
289,1939,Santuario,Calle de San Antonio de Padua 51,A,0,,2,40.3852744856651,-3.70056551427001
290,1941,Evangelios,Calle de los Evangelios 2,A,0,,2,40.383403988361394,-3.70000422264624
291,1942,Evangelios,Calle de los Evangelios 1,A,0,,2,40.3832681483619,-3.7001206332487597
292,1943,Dolores Barranco,Calle de Dolores Barranco 12,A,0,,2,40.383633596574896,-3.70374132871935
293,1944,Dolores Barranco,Calle de Dolores Barranco SN,A,0,,2,40.3833964463979,-3.7027374416317302
294,1945,Plaza del Hidrógeno,Calle de Dolores Barranco 50,A,0,,2,40.383389660298704,-3.70681375281906
295,1946,Plaza del Hidrógeno,Plaza del Hidrógeno 5,A,0,,2,40.383084607852,-3.7080829605582295
296,1947,Junta Municipal Usera,Avda de Rafaela Ybarra 8,A,0,,2,40.38241578195171,-3.71137472732791
297,1948,Junta Municipal Usera,Avda de Rafaela Ybarra 18,A,0,,2,40.381985326637604,-3.71105211455832
298,1949,Rafaela Ybarra-Marina Vega,Avda de Rafaela Ybarra 40,A,0,,2,40.3802889773598,-3.7114819842049
299,1950,Rafaela Ybarra-Marina Vega,Avda de Rafaela Ybarra SN,A,0,,2,40.3799383689296,-3.7113604936463
300,1951,Rafaela Ybarra-Pradolongo,Avda del Cerro de los Ángeles 27, ,0,,2,40.3783394712868,-3.7120582705821903
301,1952,Rafaela Ybarra-Pradolongo,Avda de Rafaela Ybarra 75,A,0,,2,40.3781056459296,-3.7119913883577995
302,1953,Polideportivo Orcasitas,Avda de Rafaela Ybarra 52,A,0,,2,40.3758236074842,-3.71243640449709
303,1955,Avenida de los Poblados-Rafaela Ybarra,Avda de Rafaela Ybarra 91,A,0,,2,40.3739317459817,-3.7124282931146197
304,1957,Rafaela Ybarra-Cestona,Avda de Rafaela Ybarra 72,A,0,,2,40.3721836579804,-3.7124805919221497
305,1958,Unidad,Calle de Deva 43,A,0,,2,40.3701612690227,-3.7124552807794498
306,1959,Rafaela Ybarra-Alzola,Avda de Rafaela Ybarra 90,A,0,,2,40.368706285384896,-3.7124572857086404
307,1961,Guetaria-Leiza,Calle de Guetaria 23,A,0,,2,40.3715075554041,-3.71547170286605
308,1962,Guetaria-Tolosa,Calle de Guetaria 1,A,0,,2,40.3731290544114,-3.7154943448115803
309,1963,Avenida de los Poblados-Rafaela Ybarra,Avda de los Poblados 130,A,0,,2,40.373557031989,-3.71329605376851
310,292,Rafaela Ybarra-Centro Comercial,Avda de Rafaela Ybarra 121,B1,0,,2,40.366895625123895,-3.7124294185628504
311,315,Gaínza,Calle de Gainza 331,A,0,,2,40.36587516152311,-3.71428740864514
312,332,Guetaria-Ordicia,Calle de Guetaria 73,B1,0,,2,40.3665618424502,-3.7154250144695697
313,3912,Glorieta de Cádiz,Calle de Marcelo Usera 5,A,0,,2,40.3876454264068,-3.70030910555786
314,4814,Avenida de los Poblados-Rafaela Ybarra,Avda de Rafaela Ybarra 89,A,0,,2,40.3739375156966,-3.71222257539765
315,4815,Polideportivo Orcasitas,Avda de Rafaela Ybarra 83,A,0,,2,40.376078526018894,-3.7120032184813603
316,5358,Santuario,Calle de Almendrales 43,A,0,,2,40.3851427768025,-3.69999862773682
317,5359,Orcasitas,Calle de Guetaria 49,,0,,0,40.3689309388956,-3.71547358033803
318,89,Delicias-Atocha,Paseo de las Delicias 7,A,0,,2,40.406661533694404,-3.69316123551764
319,212,Arturo Soria-Añastro,Calle de Arturo Soria 249,A,0,,2,40.466567940053395,-3.66613802514417
320,214,Arturo Soria-Añastro,Calle de Arturo Soria 250,A,0,,2,40.4675959226354,-3.6659712204996198
321,215,Arturo Soria-Aleixandre,Calle de Arturo Soria 239,A,0,,2,40.463051596107796,-3.6650653581789796
322,216,Arturo Soria-Aleixandre,Calle de Arturo Soria 230,A,0,,2,40.4641598411844,-3.6650408819422102
323,217,Arturo Soria-Gran Vía de Hortaleza,Calle de Arturo Soria 212 A,A,0,,2,40.4611128461684,-3.66223905439297
324,2388,Costa Rica,Calle de Costa Rica 30,A,0,,2,40.4587571623711,-3.6723711356290494
325,299,Chile,Calle de Costa Rica 12,A,0,,2,40.4584149417177,-3.67544611033171
326,300,Costa Rica,Calle de Costa Rica 30,A,0,,2,40.458370277764004,-3.67228472375625
327,302,José María Soler,Calle de Costa Rica 42,A,0,,2,40.4588214020591,-3.6690574831309197
328,303,José María Soler,Calle de Costa Rica 29,A,0,,2,40.459081284462705,-3.66929595014687
329,314,Chile,Calle de Costa Rica 5,A,0,,2,40.4588532589117,-3.6759812508119305
330,416,Santa Gema,Avda del Doctor Arce 24,A,0,,2,40.4474577089214,-3.68045460944679
331,419,República Argentina,Calle de Joaquín Costa 31,A,0,,2,40.445947733127205,-3.68596266318296
332,420,República Argentina,Calle de Joaquin Costa 18,A,0,,2,40.4456397948354,-3.68623813174609
333,421,Nuevos Ministerios-Joaquín Costa,Calle de Joaquín Costa 1,A,0,est_90_71,2,40.446067160400894,-3.6901221686949404
334,422,Nuevos Ministerios-Joaquín Costa,Calle de Joaquín Costa 1,A,0,est_90_71,2,40.4464729623521,-3.69005555719602
335,433,Plaza de Cataluña,Calle del Cinca 25,A,0,,2,40.449373389848205,-3.67947149294487
336,4338,Miguel Ángel,Calle de Miguel Ángel 11,A,0,,2,40.435590680226895,-3.6914654709386
337,434,Cinca,Calle del Cinca 1,A,0,,2,40.450269450003795,-3.6818273350563597
338,435,Hospital San Rafael,Calle de Serrano 216,A,0,,2,40.45214813694879,-3.68100895348365
339,437,Príncipe de Vergara-Serrano,Calle de Serrano 240,A,0,,2,40.4546713108363,-3.6778264396995097
340,439,Colombia,Calle del Príncipe de Vergara 268,A,0,,2,40.4581285867068,-3.67665808216794
341,440,Colombia,Calle del Príncipe de Vergara 273,A,0,,2,40.45757589907,-3.67719509019269
342,441,Segre,Calle de Serrano 183,A,0,,2,40.4500213578374,-3.68265034841936
343,442,Guadiana,Calle de Serrano 161,A,0,,2,40.447932679425705,-3.6839382447441698
344,456,Hospital San Rafael,Avda de Concha Espina 51,A,0,,2,40.4519234109621,-3.6809241349488597
345,4742,Gregorio Marañón,Paseo de la Castellana 55,A,0,,2,40.4383431704008,-3.6914258217595295
346,4849,Ecuador,Calle del Príncipe de Vergara 256, ,0,,2,40.4559109203119,-3.67690713884522
347,4850,Ecuador,Calle del Príncipe de Vergara 253, ,0,,2,40.455872196658,-3.67736672138491
348,49,Nuevos Ministerios-Cercanías,Paseo de la Castellana 67,A,0,est_90_71,2,40.4454091236309,-3.6916956156785603
349,491,Alonso Martínez,Calle de Almagro 2,A,0,,2,40.428100427118295,-3.69510250401341
350,492,Almagro-Zurbano,Calle de Almagro 28,A,0,,2,40.430421196321,-3.6926895814522998
351,493,Almagro ,Calle de Almagro 13,A,0,,2,40.430219222174,-3.69332046822398
352,494,Almagro-Rubén Darío,Calle de Almagro 44,A,0,,2,40.432284220689,-3.6914906113266097
353,495,Almagro-Rubén Darío,Calle de Almagro 33,A,0,,0,40.4325347678537,-3.69177613397615
354,497,Arturo Soria-Julio Dánvila,Calle de Arturo Soria 278,A,0,,2,40.4712298400711,-3.6669625938628703
355,498,Arturo Soria-Julio Dánvila,Calle de Arturo Soria 283,A,0,,2,40.471056096392495,-3.66740915549595
356,499,Ingenieros Navales,Calle de Arturo Soria 284,A,0,,2,40.473298656999795,-3.6675256953146405
357,500,Ingenieros Navales,Calle de Arturo Soria 287,A,0,,2,40.473232944449,-3.66798513483721
358,501,San Luis-Arturo Soria,Avda de San Luis 89,A,0,,2,40.4755047108044,-3.66772372849211
359,502,San Luis-Arturo Soria,Avda de San Luis SN,A,0,,2,40.475845938777105,-3.66791660185593
360,503,San Luis-Mesena,Avda de San Luis SN,A,0,,2,40.474794900805,-3.6658298584246403
361,504,San Luis-Mesena,Avda de San Luis 126,A,0,,2,40.4750287134609,-3.66590294865144
362,505,San Luis-Almanzora,Calle de Cuevas de Almanzora SN,A,0,,2,40.4739376654337,-3.66293107263637
363,506,San Luis-Almanzora,Avda de San Luis SN,A,0,,2,40.4740444157985,-3.66316806655997
364,507,Almanzora-Bacares,Calle de Cuevas de Almanzora SN,A,0,,2,40.475598554124204,-3.6607884220702003
365,508,Almanzora,Calle de Cuevas de Almanzora 181,A,0,,2,40.4769971512699,-3.6588200751272297
366,509,Alicún,Calle de Alicun 14,A,0,,2,40.479201201453705,-3.65937249981808
367,51,Nuevos Ministerios-Castellana,Paseo de la Castellana 65,A,0,,2,40.444093044583504,-3.69182365311429
368,510,Vélez Rubio,Calle de Vélez Rubio 113,A,0,,2,40.478227137791706,-3.6611444905759902
369,511,Manoteras,Calle de Bacares 9,A,0,,2,40.4764002149305,-3.6623889580102302
370,512,Almanzora-Bacares,Calle de Bacares 5,A,0,,2,40.475514716553,-3.66127130154062
371,513,Cuartel de la Marina,Calle de Arturo Soria 291,A,0,,2,40.4751130547413,-3.66846383457014
372,514,Príncipe de Vergara-Serrano,Calle del Príncipe de Vergara 227,A,0,,2,40.4541869935126,-3.6774559732492205
373,516,Concha Espina,Calle del Príncipe de Vergara 215,A,0,,2,40.4524381698761,-3.67764040568741
374,518,Almagro-Alonso Martínez,Calle de Almagro 3,A,0,,2,40.428514745939495,-3.69511855146767
375,52,Nuevos Ministerios-Castellana,Calle de Jorge Manrique 1,A,0,,2,40.4437817603591,-3.6911486920824506
376,529,Miguel Ángel,Paseo del General Martínez Campos 46,A,0,,2,40.435145744676795,-3.6905412631136696
377,53,Museo Ciencias Naturales,Paseo de la Castellana SN,A,0,,2,40.4410277746673,-3.69219319534525
378,5318,Doctor Arce,Avda del Doctor Arce 10,A,0,,2,40.4458940221104,-3.6828563034932404
379,54,Museo Ciencias Naturales,Calle de José Gutiérrez Abascal 2,A,0,,2,40.4411678325366,-3.69136922174051
380,56,Gregorio Marañón,Plaza del Doctor Marañón 70,A,0,,2,40.4383943354315,-3.6904001548758902
381,58,Emilio Castelar,Paseo de la Castellana 52,A,0,,0,40.435796439765895,-3.6886849934950297
382,1170,Legazpi ,Paseo de las Delicias 150,A,0,,0,40.3919467080686,-3.6951672474336803
383,1182,Beata,Paseo de las Delicias 95,A,0,,2,40.3954014258801,-3.6944603500376703
384,1186,Ferrocarril,Calle de la Batalla del Salado 26,A,0,,2,40.4006156113764,-3.6963050705853395
385,1187,Batalla del Salado-Embajadores,Calle de la Batalla del Salado 50,A,0,,2,40.3975731281401,-3.69662472078286
386,1188,Beata,Calle de Miguel Arredondo 1,A,0,,2,40.3950264913521,-3.6953873998683595
387,1410,Ciudad de Barcelona-Seco,Avda de la Ciudad de Barcelona 208,A,0,,2,40.3997411078699,-3.67200861661722
388,1411,Ciudad de Barcelona-Seco,Avda de la Ciudad de Barcelona 93,A,0,,2,40.3999130138917,-3.67188216809509
389,1826,Indalecio Prieto-Los Pinillas,Bulv de Indalecio Prieto 27,A,0,,2,40.3998524460189,-3.62140665106483
390,1827,Indalecio Prieto-Los Pinillas,Bulv de Indalecio Prieto 26,A,0,,2,40.400192429087,-3.62184689890298
391,1828,Indalecio Prieto-Los Juglares,Bulv de Indalecio Prieto 13 B,A,0,,2,40.4019471834418,-3.6205431252596303
392,1829,Valdebernardo,Bulv de Indalecio Prieto 16,A,0,,2,40.4019529712278,-3.62114419892874
393,1964,Estación de Delicias,Calle de Ramírez de Prado 3 B,A,0,,2,40.4007687659712,-3.69330160251133
394,1965,Ramírez de Prado-Juan de Mariana,Calle de Ramírez de Prado 20,A,0,,2,40.3992348700005,-3.6861328746139903
395,1966,Ramírez de Prado-Vara del Rey,Calle de Ramírez de Prado 6,A,0,,2,40.3993993735041,-3.68877421317138
396,1967,Méndez Álvaro-REPSOL,Calle de Méndez Álvaro 54,A,0,,2,40.3981750341744,-3.68329985804088
397,1968,Méndez Álvaro-REPSOL,Calle de Méndez Álvaro 55,A,0,,2,40.3983570923403,-3.6829816842504304
398,1970,Metro Méndez Álvaro,Calle de Méndez Álvaro 75,A,0,est_90_13,2,40.3963746269251,-3.68076586489432
399,1971,Amanecer en Méndez Álvaro,Calle de Méndez Álvaro 35,A,0,,2,40.399838360949104,-3.68463022865879
400,1973,Méndez Álvaro-Áncora,Calle de Áncora 45,A,0,,2,40.40289539683221,-3.68868935554454
401,1976,Centro Dotacional Arganzuela,Calle de Martín Soler 4,A,0,,2,40.4029415774866,-3.6960343732174903
402,1978,Pacífico,Avda de la Ciudad de Barcelona 81 A,A,0,,2,40.4012325244303,-3.6742624886584503
403,1979,Puente de Vallecas-Peña Prieta,Avda de Peña Prieta 6,A,0,,2,40.3990332303934,-3.6682306499273105
404,1980,Peña Prieta,Avda de Peña Prieta 24,A,0,,2,40.3998324371239,-3.6671190260660897
405,1981,Peña Prieta,Avda de Peña Prieta 19,A,0,,2,40.4005565144338,-3.66653693757039
406,1983,Peña Prieta-Pico Almanzor,Avda de Peña Prieta 65,A,0,,2,40.4026788009936,-3.664071232823
407,1984,Mercado Doña Carlota,Calle de Santa Marta 22,A,0,,2,40.4030983483961,-3.6616005186120804
408,1986,Sierra Elvira-Sierra Toledana,Calle de Sierra Toledana 42,A,0,,2,40.40433594651729,-3.6594323661869703
409,1987,Sierra Elvira-Sierra Toledana,Calle de Sierra Elvira 39,A,0,,2,40.4050107171402,-3.6595921471106703
410,1988,Corregidor Alonso Aguilar,Plaza del Corregidor Alonso de Aguilar 6,A,0,,2,40.4070682935348,-3.65897577349925
411,1989,Plaza del Encuentro,Calle del Arroyo Fontarrón 1,A,0,,2,40.405336068911204,-3.65145167793868
412,1990,Arroyo Fontarrón-Francisco de Luján,Calle del Arroyo Fontarrón 8,A,0,,2,40.402719934024205,-3.65047193267137
413,1991,Arroyo Fontarrón-Francisco de Luján,Calle del Arroyo Fontarrón 55,A,0,,2,40.40280266538171,-3.65017810612646
414,1992,Arroyo Fontarrón-Encomienda de Palacios,Calle del Arroyo Fontarrón 10,A,0,,2,40.4008040524579,-3.64832053088439
415,1993,Arroyo Fontarrón-Encomienda de Palacios,Calle del Arroyo Fontarrón 83,A,0,,2,40.4011014021567,-3.64831159347438
416,1994,Encomienda de Palacios-Arroyo Fontarrón,Calle de la Encomienda de Palacios 4,A,0,,2,40.400451153563104,-3.64698550945602
417,1995,Encomienda de Palacios-Pico Artilleros,Calle de la Encomienda de Palacios 146,A,0,,2,40.400654092109704,-3.64289823303073
418,1996,Encomienda de Palacios-Tacona,Calle de la Encomienda de Palacios 250,A,0,,2,40.3991181228105,-3.64044431724672
419,1997,Fuente Carrantona-Encomienda de Palacios,Calle de la Encomienda de Palacios 264,A,0,,2,40.3980720684322,-3.6373587909617697
420,1998,Fuente Carrantona-Encomienda de Palacios,Calle de la Encomienda de Palacios SN,A,0,,2,40.3983149122033,-3.6374317810578196
421,1999,Encomienda de Palacios-Valdebernardo,Calle de la Encomienda de Palacios 360,A,0,,2,40.3971593823393,-3.63458099003974
422,2000,Encomienda de Palacios-Valdebernardo,Calle de la Encomienda de Palacios SN,A,0,,2,40.3974107846909,-3.63473653678611
423,2001,Valdebernardo-Hacienda de Pavones,Calle de Valdebernardo 23,A,0,,2,40.39952191240479,-3.6325408786920397
424,2057,Puente de Vallecas,Avda de la Ciudad de Barcelona 107,A,0,,2,40.3992360201146,-3.67055414384386
425,2058,Puente de Vallecas,Avda de la Ciudad de Barcelona 224,A,0,,2,40.398716183148295,-3.6700894144279
426,2421,Metro Palos de la Frontera,Calle de Áncora 3,A,0,,2,40.4032280902399,-3.69332678927096
427,3354,Plaza del Encuentro,Avda.  Moratalaz S.N.,A,0,,2,40.405537761000204,-3.65243180137143
428,3495,José Prat-Ladera de los Almendros,Bulv de José Prat SN,A,0,,2,40.3979912714515,-3.62573898343921
429,3496,José Prat-Ladera de los Almendros,Bulv de José Prat SN,A,0,,2,40.398820066496704,-3.62574664158526
430,3497,Indalecio Prieto-José Prat,Bulv de Indalecio Prieto SN,A,0,,2,40.3977221616383,-3.6221777351774707
431,4325,Puente de Vallecas-Peña Prieta,Cmno de Valderribas SN,A,0,,2,40.399086397917706,-3.6683843692482
432,4373,Centro de Salud Pavones,Calle de la Hacienda de Pavones 271,,0,,0,40.399134684986294,-3.62920232648905
433,4374,Centro de Salud Pavones,Calle de la Hacienda de Pavones 261,A,0,,0,40.399615065458,-3.6303262991990297
434,4516,Valdebernardo-Hacienda de Pavones,Calle de Valdebernardo SN,A,0,,2,40.399442507272,-3.6322337457846006
435,4596,Sierra Elvira-Julián del Cerro,Calle de Sierra Elvira 29,A,0,,2,40.40474689419221,-3.6631958449158595
436,4802,Estación de Méndez Álvaro-Estación Sur,Calle de Pedro Bosch SN,A,0,est_90_13,2,40.3960694262956,-3.67904238074313
437,5027,Indalecio Prieto-José Prat,Bulv de Indalecio Prieto SN,A,0,,2,40.3977817396989,-3.6228264019873304
438,5028,Copérnico,Calle de Copérnico 4, ,0,,2,40.3957506002075,-3.62525871925726
439,5029,Copérnico,Calle de Copérnico 1, ,0,,2,40.3959841889911,-3.6253787125332404
440,5030,Indalecio Prieto-Copérnico,Bulv de Indalecio Prieto 45 J, ,0,,2,40.395663693387796,-3.6229954618429305
441,5031,Indalecio Prieto-Copérnico,Bulv de Indalecio Prieto 48 A, ,0,,2,40.3958045351575,-3.6236095069322096
442,5032,Indalecio Prieto-Los Juglares,Calle de los Juglares 18,,0,,0,40.4027081362714,-3.61976051403466
443,5033,Valdebernardo,Calle del Tren de Arganda 10,,0,,0,40.4039168704209,-3.61947695134573
444,5036,Delicias-Cáceres,Paseo de las Delicias 69, ,0,,2,40.39782676631629,-3.69414349044609
445,5128,Legazpi,Plaza de Legazpi 3,A,0,,2,40.3912647464148,-3.6947124997536998
446,5144,Méndez Álvaro-Bustamante,Calle de Méndez Álvaro 11,A,0,,2,40.4009124806876,-3.68580812547886
447,5467,Metro Méndez Álvaro,Calle de Méndez Álvaro 60 A,A,0,est_90_13,2,40.396630954493496,-3.68160508940768
448,5471,Pacífico,Avda de la Ciudad de Barcelona 192,A,0,,2,40.4008098770436,-3.67412865003107
449,5472,Corregidor Alonso Aguilar,Avda de Moratalaz 44,A,0,,2,40.406707581400795,-3.65745192819175
450,5473,Corregidor Alonso Aguilar,Avda de Moratalaz 45 B,A,0,,2,40.4070141404396,-3.65740776322401
451,5540,Alfonso XIII-Peña Prieta,Calle de Alfonso XIII 2,,0,,0,40.4018150989919,-3.66465273159335
452,5541,Santa Marta-Alfonso XIII,Calle de Santa Marta 4,,0,,0,40.401446686442206,-3.66212573440377
453,5558,Ramírez de Prado-General Lacy,Calle de Ramírez de Prado 3,,0,,0,40.3999289386025,-3.69137289169811
454,834,Parque Darwin,Avda de Moratalaz 93,A,0,,2,40.406081526958,-3.6550534065975397
455,835,Parque Darwin,Avda de Moratalaz 97,A,0,,2,40.406392285409495,-3.6550630429984303
456,844,Encomienda de Palacios-Arroyo Fontarrón,Calle de la Encomienda de Palacios 1,A,0,,2,40.400630535687206,-3.6471286372201
457,849,Encomienda de Palacios-Tacona,Calle de la Encomienda de Palacios 189,A,0,,2,40.3991210532938,-3.6399140551870097
458,850,Encomienda de Palacios-Pico Artilleros,Calle de la Encomienda de Palacios 53,A,0,,2,40.400808023181604,-3.6427582804432004
459,13,Méndez Álvaro Estación Sur,Calle del Ombu 16,A,1,,0,40.395379999999996,-3.6781900000000003
460,1846,Mar Caspio,Calle del Mar Caspio 5,A,0,,2,40.4735402075962,-3.6480007460174195
461,1847,Mar Caspio,Calle del Mar Caspio 5,A,0,,2,40.473734166475396,-3.6479532060759103
462,1848,Mar de las Antillas-Mar Negro,Calle del Mar de las Antillas 6,A,0,,2,40.4742270020684,-3.64520251894656
463,1849,Mar de las Antillas-Mar Negro,Calle del Mar de las Antillas 6,A,0,,2,40.4744600393655,-3.6454170981499203
464,2006,Pedro de Valdivia,Calle de Pedro de Valdivia 19 L,A,0,,2,40.439430914684,-3.6834749138223497
465,2007,Glorieta López de Hoyos,Calle de López de Hoyos 42,A,0,,2,40.4401845446417,-3.6809473880018198
466,2008,Glorieta López de Hoyos,Calle de López de Hoyos 27,A,0,,2,40.4402993660798,-3.68133766035823
467,2009,López de Hoyos-Príncipe de Vergara,Calle de López de Hoyos 66,A,0,,2,40.441624361358706,-3.67815401017308
468,2010,López de Hoyos-Príncipe de Vergara,Calle de López de Hoyos 68,A,0,,2,40.441895332136,-3.67803438973277
469,2011,López de Hoyos-Cartagena,Calle de López de Hoyos 92,A,0,,2,40.4430127545471,-3.6756702730557103
470,2013,Prosperidad,Calle de López de Hoyos 118,A,0,,2,40.444251690015705,-3.67409072499969
471,2014,Prosperidad,Calle de López de Hoyos 85,A,0,,2,40.4447137945685,-3.67363617563718
472,2015,López de Hoyos-Cardenal Silíceo,Calle de López de Hoyos 146,A,0,,2,40.4456021413904,-3.67192040152492
473,2016,López de Hoyos-Cardenal Silíceo,Calle de López de Hoyos 115,A,0,,2,40.4459506697467,-3.6716305304560093
474,2017,López de Hoyos-Pantoja,Calle de López de Hoyos 170,A,0,,2,40.44709240132261,-3.66971378780075
475,2018,López de Hoyos-Pantoja,Calle de López de Hoyos 139,A,0,,2,40.4474316366243,-3.66947208310317
476,2020,Metro Alfonso XIII,Calle de López de Hoyos 196,A,0,,2,40.448505125303704,-3.66766625140885
477,2021,Metro Alfonso XIII,Calle de López de Hoyos 157,A,0,,2,40.448817987157604,-3.66731039596591
478,2022,Padre Claret-Ramón y Cajal,Calle del Padre Claret 32,A,0,,2,40.452297664052104,-3.6653619722447504
479,2024,López de Hoyos-Cañas,Calle de López de Hoyos 336,A,0,,2,40.456877626527294,-3.66083640991939
480,2025,López de Hoyos-Cañas,Calle de López de Hoyos 259,A,0,,2,40.456767814265596,-3.6611349843481897
481,2026,López de Hoyos-Arturo Soria,Calle de López de Hoyos 368,A,0,,2,40.4597991850461,-3.65958229858004
482,2027,López de Hoyos-Navarro Amandi,Calle de López de Hoyos 394,A,0,,2,40.461962021159295,-3.6586715938014702
483,2029,Junta Municipal de Hortaleza,Calle de López de Hoyos SN,A,0,,2,40.463717498510206,-3.65731047953741
484,2030,Junta Municipal de Hortaleza,Calle de López de Hoyos 325 B,A,0,,0,40.4636568462071,-3.6576792354859102
485,2033,López de Hoyos-Gran Vía de Hortaleza,Calle de López de Hoyos 456,A,0,,2,40.4679570315619,-3.6531876619277597
486,2034,López de Hoyos-Gran Vía de Hortaleza,Calle de López de Hoyos 337,A,0,,2,40.4676386058532,-3.6537390033035697
487,2035,López de Hoyos-Ángel Luis Herrán,Calle de López de Hoyos 466,A,0,,2,40.4702747640906,-3.65115745984052
488,2036,López de Hoyos-Ángel Luis Herrán,Calle de López de Hoyos 363 A,A,0,,2,40.4702371937146,-3.65143026351928
489,2037,Santos de la Humosa,Calle de López de Hoyos 504,A,0,,2,40.4721126298525,-3.64954719771935
490,2038,Santos de la Humosa,Calle de López de Hoyos SN,A,0,,2,40.47224272964579,-3.64964171889812
491,2039,Mar de las Antillas-Santa Susana,Calle del Mar de las Antillas SN,A,0,,2,40.476087991597794,-3.6475090458389903
492,2040,Santa Susana,Calle de Santa Susana 7,,0,,0,40.4764881233176,-3.64684041178535
493,2041,Parque Santa María,Calle de Santa Susana 33,,0,,0,40.477984585651996,-3.64666597870099
494,2042,Santa Adela-Santa Susana,Calle de Santa Adela 7,,0,,0,40.479139556271896,-3.64795124514579
495,2043,Hortaleza,Calle del Mar de las Antillas SN,A,0,,2,40.4780062933553,-3.64922635228617
496,218,Arturo Soria-López de Hoyos,Calle de Arturo Soria SN,A,0,,2,40.4595631881383,-3.66068169967231
497,2560,Mar de las Antillas-Santa Susana,Calle del Mar de las Antillas 10,B1,0,,2,40.4756588155735,-3.64692684888957
498,268,López de Hoyos-Cartagena,Calle de López de Hoyos 69,,0,,0,40.4431928704494,-3.67568128569413
499,310,Alfonso XIII-Pradillo,Avda de Alfonso XIII 25,A,0,,2,40.4513160111816,-3.66765274273853
500,3411,Sevilla,Calle de Alcalá 37,A,0,,2,40.4187708509133,-3.6974702569625597
501,3550,Mar de las Antillas-Abarzuza,Calle del Mar de las Antillas SN,A,0,,2,40.476804181128394,-3.64831816279512
502,3927,Luis Rosales,Calle de López de Hoyos 406,,0,,0,40.4662549783022,-3.65466891938205
503,3928,Luis Rosales,Calle de López de Hoyos SN,A,0,,2,40.46642540376,-3.65480069534084
504,408,Avenida de la Paz,Avda de Ramón y Cajal SN,A,0,,2,40.453596286915996,-3.66119830617096
505,409,Avenida de la Paz,Avda de Ramón y Cajal 107,A,0,,2,40.453738065170995,-3.66161247447079
506,427,Velázquez-Juan Bravo,Calle de Velázquez 88,A,0,,2,40.4321520631214,-3.6834013444738503
507,428,Velázquez-Diego de León,Calle de Velázquez 102,A,0,,2,40.4347298112048,-3.68320337749229
508,446,Serrano-María de Molina,Calle de Serrano 95,A,0,,2,40.438377365011604,-3.6864356089736896
509,447,Serrano-Diego de León,Calle de Serrano 77,A,0,,2,40.435880480457705,-3.6866696541927304
510,448,Serrano-Maldonado,Calle de Serrano 71,A,0,,2,40.4339426794875,-3.68681504029628
511,4538,López de Hoyos-Navarro Amandi,Calle de Navarro Amandi 13,,0,,0,40.4613752835553,-3.6596655069369306
512,462,Padre Claret-Ramón y Cajal,Avda de Ramón y Cajal 81,A,0,,2,40.4526230078517,-3.66596812061237
513,4710,Serrano-Juan Bravo,Calle de Serrano 63,A,0,,2,40.4325637531074,-3.68690714584135
514,4721,López de Hoyos-Padre Claret,Calle de López de Hoyos 218,A,0,,2,40.4502583443284,-3.6651498887769502
515,5377,Velázquez-María de Molina,Calle de Velázquez 130,A,0,,2,40.4380109145568,-3.6828945918777203
516,1002,Junta Municipal Puente de Vallecas,Avda de la Albufera 39,A,0,,2,40.3968029232893,-3.66598150140836
517,1401,Intercambiador de Atocha,Avda de la Ciudad de Barcelona 2 B,A,0,est_90_54,2,40.406735354481,-3.6890941436283304
518,1435,Doctor Esquerdo-Cavanilles,Calle del Doctor Esquerdo 148,A,0,,2,40.4040435708768,-3.6726759324630804
519,2045,Intercambiador de Atocha,Paseo de la Infanta Isabel 13,A,0,est_90_54,2,40.407187008701705,-3.6881345319313197
520,2046,Basílica de Atocha,Paseo de la Reina Cristina 2,A,0,,2,40.4064674510625,-3.6848979948963
521,2047,Basílica de Atocha,Paseo de la Infanta Isabel 29,A,0,,2,40.406652446334206,-3.68560699757408
522,2048,Reina Cristina,Paseo de la Reina Cristina 22,A,0,,2,40.4069817624882,-3.6817093089893698
523,2049,Reina Cristina,Paseo de la Reina Cristina 13,A,0,,2,40.4071569354439,-3.6825596366335396
524,2050,Mariano de Cavia,Calle de Cavanilles 10,A,0,,2,40.4069042527458,-3.6780314337427598
525,2051,Mariano de Cavia,Calle de Cavanilles 1,A,0,,2,40.4072106809082,-3.67801093199545
526,2052,Cavanilles-Abtao,Parti de Cavanilles 36,A,0,,2,40.4058552944109,-3.6756167096341903
527,2053,Cavanilles-Abtao,Calle de Cavanilles 31,A,0,,2,40.4056630140473,-3.6746012508666897
528,2055,Doctor Esquerdo-Cavanilles,Calle de Cavanilles 51,A,0,,2,40.404638819476,-3.6725639956282903
529,2059,Monte Igueldo,Avda del Monte Igueldo 10,A,0,,2,40.396975856073,-3.6680225418066903
530,2063,Arroyo del Olivar-Sierra Carbonera,Calle del Arroyo del Olivar 28,A,0,,2,40.393105441444504,-3.6634964523444102
531,2064,Arroyo del Olivar-Carlos Martín Álvarez,Calle del Arroyo del Olivar 70,A,0,,2,40.3916779575124,-3.6610529788907797
532,2065,Arroyo del Olivar-Carlos Martín Álvarez,Calle del Arroyo del Olivar 66,A,0,,2,40.391875877516,-3.66110204244104
533,2066,Arroyo del Olivar-Muñoz Díaz,Calle del Arroyo del Olivar 51,A,0,,2,40.3904088427537,-3.6576825254224903
534,2067,Arroyo del Olivar-Muñoz Díaz,Calle del Arroyo del Olivar 51,A,0,,2,40.390562724690206,-3.65755440971631
535,2068,Parque de Azorín,Calle del Arroyo del Olivar 138,A,0,,2,40.388652032185,-3.6545077881123103
536,2069,Parque de Azorín,Calle del Arroyo del Olivar SN,A,0,,2,40.388868505003295,-3.65446275007692
537,2070,Buenos Aires-Palomeras,Avda de Palomeras 106,A,0,,2,40.3868339196994,-3.6526050903352405
538,2071,Buenos Aires-Palomeras,Avda de Buenos Aires 33,A,0,,2,40.387364033719,-3.65285762275496
539,2072,Pedro Laborde-Palomeras,Avda de Palomeras 138,A,0,,2,40.3863417616027,-3.65040889988428
540,2073,Pedro Laborde-Palomeras,Avda de Palomeras 126,A,0,,2,40.3865832740081,-3.6507175513744503
541,2074,Parque de la Constitución,Avda de Palomeras 143,A,0,,2,40.3860348509611,-3.6489096478542398
542,2075,Pablo Neruda-Avenida de Palomeras,Avda de Palomeras 160,A,0,,2,40.385285642144495,-3.64755934607042
543,2076,Pablo Neruda-Avenida de Palomeras,Avda de Palomeras 155,A,0,,2,40.3854926429222,-3.6475966702108997
544,2077,Extremeños,Calle de los Extremeños 1,A,0,,2,40.385469754708,-3.6460486128589302
545,2078,Extremeños,Calle de los Extremeños 1,A,0,,2,40.3857089842542,-3.64596105740304
546,2079,Biblioteca Miguel Hernández,Calle de los Extremeños 5,A,0,,2,40.3843524596625,-3.6436507034082997
547,2080,Biblioteca Miguel Hernández,Calle de los Extremeños 5,A,0,,2,40.384641390404795,-3.6435356314565404
548,2081,Aragoneses,Avda de Rafael Alberti 53,A,0,,2,40.3829586443552,-3.64480382055704
549,2082,Aragoneses,Avda de Rafael Alberti 51,A,0,,2,40.382734280859,-3.64464852764704
550,2083,Leoneses,Calle de Villalobos 12,A,0,,2,40.3824436542294,-3.6466839287666
551,2084,Leoneses,Calle de Villalobos 3,A,0,,2,40.3824390490078,-3.6458945372439104
552,2085,Villalobos,Calle de Villalobos 20,A,0,,2,40.3818176930546,-3.64906953754444
553,2086,Villalobos,Calle de Villalobos 63,A,0,,2,40.3816742810019,-3.6489385708129
554,2087,Pablo Neruda-Villalobos,Calle de Villalobos SN,A,0,,2,40.3813470150346,-3.6510678182667897
555,2088,Pablo Neruda-Villalobos,Avda de Pablo Neruda 71,A,0,,2,40.381678877229206,-3.6513301929690702
556,2091,Martínez de la Riva,Calle de Martínez de la Riva 18,A,0,,2,40.3941511491738,-3.66652102332636
557,2106,Parque de Palomeras,Calle de Villalobos 145,A,0,,2,40.379346847123706,-3.65189460581876
558,2109,Parque de Palomeras,Avda del Parque de Palomeras Bajas 30,A,0,,2,40.3780063106776,-3.65396907255488
559,2577,Buenos Aires-Mogambo,Avda de Buenos Aires 99,A,0,,0,40.379806201963206,-3.6527141124126805
560,4517,Mogambo,Calle de Villalobos 42,,0,,0,40.380232924493,-3.6521291770010698
561,4540,Parque de la Constitución,Avda de Palomeras 152,A,0,,2,40.3858637531608,-3.6488962270614906
562,4861,Arroyo del Olivar-Monte Perdido,Calle del Arroyo del Olivar 56,A,0,,2,40.392230298779396,-3.6621424066817703
563,4864,Puente de Vallecas,Avda de la Ciudad de Barcelona 111,A,0,,2,40.3991200683694,-3.6703526640231097
564,5442,Cibeles,Paseo del Prado 2,,0,,0,40.41903427872921,-3.6933590756847994
565,5453,Ministerio de Agricultura,Paseo de la Infanta Isabel 1,A,0,,2,40.4090152952876,-3.6912528181815296
566,5511,Museo del Prado-Jardín Botánico,Paseo del Prado 22,A,0,,2,40.4130869912528,-3.69282667053935
567,5681,Arroyo del Olivar-Puerto de Pajares,Calle del Puerto de Pajares 7,A,0,,2,40.393937257493896,-3.665332855052
568,5774,Palomeras,Calle de Sabrina 4,,0,,0,40.3771536612943,-3.6541971879186406
569,77,Neptuno,Plaza de Cánovas del Castillo 5,A,0,,2,40.41513008786411,-3.69465726037455
570,78,Neptuno,Plaza de Cánovas del Castillo 2,A,0,,2,40.4156429351348,-3.6932653881211097
571,79,Museo del Prado-Jardín Botánico,Paseo del Prado 22,A,0,,2,40.412367169668606,-3.6934285161484106
572,81,Prado-Atocha,Paseo del Prado 48,A,0,,2,40.4099260079139,-3.69262709547135
573,82,Prado-Atocha,Paseo del Prado SN,A,0,,2,40.410059326387895,-3.69217764133906
574,54,Atocha-Renfe,Avda de la Ciudad de Barcelona 2 B,A,1,,0,40.40659,-3.6894400000000003
575,2116,Cuzco,Plaza de Cuzco 2,A,0,,2,40.458819304112204,-3.6893796080947405
576,2118,Arturo Soria-Condesa de Venadito,Calle de la Condesa de Venadito 19,,0,,0,40.446850930482704,-3.6496345898205695
577,2119,Condesa de Venadito,Calle de la Condesa de Venadito 11,A,0,,2,40.4459502781925,-3.6511943224423997
578,2120,Madre Antonia París,Calle de la Madre Antonia París 2,A,0,,2,40.4437742476644,-3.65205776263772
579,2121,Condesa de Venadito-Torrelaguna,Calle de la Condesa de Venadito 16,A,0,,2,40.4444573320419,-3.6539392994224
580,2122,Condesa de Venadito,Calle de la Condesa de Venadito SN,A,0,,2,40.4456421313313,-3.6515215394916702
581,2123,Hernández de Tejada,Calle de Hernández de Tejada 2,A,0,,2,40.446870838664395,-3.6517032682032
582,219,Arturo Soria-López de Hoyos,Calle de Arturo Soria 200,A,0,,2,40.459209857603895,-3.65944864676668
583,220,Metro Arturo Soria,Calle de Arturo Soria 167,A,0,,2,40.45681525466271,-3.6575499855399305
584,221,Metro Arturo Soria,Calle de Arturo Soria 182,A,0,,2,40.457149246979604,-3.6574338178748595
585,222,Jefatura provincial Tráfico,Calle de Arturo Soria 145,A,0,,2,40.454534263777,-3.65546902005714
586,223,Arturo Soria-Bueso Pineda,Calle de Arturo Soria 164,A,0,,2,40.4547736127721,-3.6553611420454
587,224,Arturo Soria-Conservatorio,Calle de Arturo Soria 115,A,0,,2,40.451983772366795,-3.65324480659172
588,225,Arturo Soria-Conservatorio,Calle de Arturo Soria 134 A,A,0,,2,40.450980685157205,-3.6521943556494
589,226,Nuestra Señora de América,Calle de Arturo Soria 103,A,0,,2,40.4497947457046,-3.65161721385567
590,227,Nuestra Señora de América,Calle de Arturo Soria 124,A,0,,2,40.4492146768111,-3.6506361228402597
591,293,Alberto Alcocer-Padre Damián,Calle de Alberto Alcocer 12,A,0,,2,40.4586731368197,-3.6851674443624707
592,294,Alberto Alcocer-Padre Damián,Calle de Alberto Alcocer 15,A,0,,2,40.4590607789213,-3.68512419685243
593,295,Alberto Alcocer-Paseo de la Habana,Calle de Alberto Alcocer 32,A,0,,2,40.4585457174016,-3.6823354531413997
594,296,Alberto Alcocer-Paseo de la Habana,Calle de Alberto Alcocer 31,A,0,,2,40.458851865550706,-3.68236213424734
595,297,República Dominicana,Calle de Alberto Alcocer SN,A,0,,2,40.4586326838112,-3.6782671958289903
596,298,República Dominicana,Calle de Alberto Alcocer 49,A,0,,2,40.458974659575205,-3.67832960216094
597,3997,Marqués de Viana-Genciana,Calle del Marqués de Viana 73,A,0,,2,40.463185108039106,-3.7034488740069698
598,3998,Marqués de Viana-Genciana,Calle del Marqués de Viana 64,A,0,,2,40.4636156474047,-3.70376003957113
599,3999,Marqués de Viana-Gladiolo,Calle del Marqués de Viana 43,A,0,,2,40.4623208139592,-3.7018711076337003
600,4000,Marqués de Viana-Gladiolo,Calle del Marqués de Viana 40,A,0,,2,40.462689800936104,-3.70193391799808
601,4001,Metro Tetuán,Calle del Marqués de Viana 1,A,0,,2,40.4607725415182,-3.6986821765466296
602,4002,Metro Tetuán,Calle del  Marqués de Viana 2,A,0,,2,40.4609432030726,-3.6987665065403803
603,4003,Sor Ángela de la Cruz-Infanta Mercedes,Calle de Sor Ángela de la Cruz 37,A,0,,2,40.460301141192105,-3.69767473636919
604,4004,Sor Ángela de la Cruz-Infanta Mercedes,Calle de Sor Ángela de la Cruz 36,A,0,,2,40.4607068751757,-3.69761995175051
605,4005,Sor Ángela de la Cruz-Orense,Calle de Sor Ángela de la Cruz 11 A,A,0,,2,40.4591518088339,-3.6940419003735
606,4006,Sor Ángela de la Cruz-Orense,Calle de Sor Ángela de la Cruz 20,A,0,,2,40.4595303061995,-3.69402183059834
607,4007,Sor Ángela de la Cruz-Cuzco,Calle de  Sor Ángela de la Cruz 1,A,0,,2,40.4590532517106,-3.69093889108994
608,4008,Sor Ángela de la Cruz-Cuzco,Calle de Sor Ángela de la Cruz 6,A,0,,2,40.459441449932,-3.69231105019786
609,4009,Gardenias,Paseo de la Dirección 170,A,0,,2,40.46508860339571,-3.70598118522123
610,4293,Marqués de Viana,Calle del Marqués de Viana 80,,0,,0,40.4640737827355,-3.70545747252021
611,4331,Jefatura Provincial Tráfico,Calle de Arturo Soria 148,A,0,,2,40.4531109831897,-3.6538505436105697
612,5882,Cuzco,Avda de Alberto Alcocer 1,,0,,0,40.4592362280662,-3.6889577788172203
613,697,Barrio Blanco,Calle de Torrelaguna 48 C,A,0,,2,40.4435644895687,-3.65410754259768
614,1428,Manuel Becerra,Calle del Doctor Esquerdo 1,A,0,,2,40.4277816668618,-3.6681373202898904
615,2390,San Francisco de Sales,Paseo de San Francisco de Sales 28,A,0,,2,40.4412531814905,-3.71441077997028
616,3829,Manuel Becerra,Calle de Francisco Silvela 1,A,0,,2,40.428647663709,-3.66950165090627
617,4541,Cristo Rey,Calle de Cea Bermúdez 66,A,0,,2,40.4394601211344,-3.7159128999358
618,4642,Alonso Cano,Calle de José Abascal 26,A,0,,2,40.4383524093987,-3.69814386393263
619,5296,Diego de León,Calle de Alonso Heredia 2,A,0,,2,40.4345404031892,-3.67401675392444
620,532,Serrano-María de Molina,Calle de María de Molina 18,A,0,,2,40.4378045860482,-3.68731411525436
621,533,Serrano-María de Molina,Calle de María de Molina 17,A,0,,2,40.438033738989205,-3.6866520959977502
622,685,Alcalá-Parque Bomberos,Calle de Alcalá 170,A,0,,2,40.4290976839144,-3.66645264083303
623,686,Alcalá-Bocángel,Calle de Alcalá 194,A,0,,2,40.4299634534841,-3.66472810185446
624,779,Marqués de Zafra,Calle de Sancho Dávila 36,A,0,,2,40.4252775419793,-3.66179380474838
625,780,Rufino Blanco,Paseo del Marqués de Zafra 35,A,0,,2,40.425912457071206,-3.6641931596137898
626,781,Marqués de Mondejar,Paseo del Marqués de Zafra 9,A,0,,2,40.4267696162342,-3.6671016779918997
627,782,Parque Eva Duarte,Calle de Francisco Silvela 4,A,0,,2,40.4295296803369,-3.66965185568517
628,784,Francisco Silvela-Juan Bravo,Calle de Francisco Silvela 34,A,0,,2,40.4326674948981,-3.67230031847238
629,786,Diego de León,Calle de Francisco Silvela 57,A,0,,2,40.4339641058081,-3.6739686385802597
630,788,Intercambiador de Avenida de América,Calle de Francisco Silvela 80,A,0,est_90_4,2,40.4367162695859,-3.6763022696305097
631,789,Intercambiador de Avenida de América,Calle de Francisco Silvela 81,A,0,est_90_4,2,40.4370081062393,-3.6772366630940803
632,790,María de Molina,Calle de María de Molina 41,A,0,est_90_4,2,40.4376488487586,-3.67858724658908
633,791,María de Molina,Calle de María de Molina 56,A,0,,2,40.4374429854916,-3.6798939695434396
634,792,Velázquez-María de Molina,Calle de María de Molina 31,A,0,,2,40.4378875761838,-3.68242170743303
635,793,Velázquez-María de Molina,Calle de María de Molina 42,A,0,,2,40.4375900184512,-3.68246586788151
636,794,Gregorio Marañón,Plaza del Doctor Marañón 70,A,0,,2,40.4385258872939,-3.6902456349107005
637,795,Museo Ciencias Naturales,Paseo de la Castellana SN,A,0,,2,40.440529710236,-3.6911150759725695
638,796,San Juan de la Cruz,Calle de Ríos Rosas SN,A,0,,2,40.441903878446,-3.69557937262783
639,797,Ríos Rosas-Alonso Cano,Calle de Ríos Rosas 39,A,0,,2,40.4420304136409,-3.69775734626288
640,798,Metro Ríos Rosas,Calle de Ríos Rosas 15,A,0,,2,40.442224817059,-3.7013676190115694
641,799,Juan Zorrilla,Plaza   Juan Zorrilla SN,A,0,,2,40.4422230034943,-3.7046339060169102
642,800,Estadio Vallehermoso,Avda de Filipinas 7,A,0,,2,40.4408194541698,-3.7087580826264306
643,801,Metro Islas Filipinas,Avda de Filipinas 1 B,A,0,,2,40.4393680994748,-3.71257501180473
644,803,Cristo Rey-San Francisco de Sales,Paseo de San Francisco de Sales 2,A,0,,2,40.4397703822539,-3.71672978416053
645,805,Metro Islas Filipinas,Calle de Cea Bermúdez 37,A,0,,2,40.438935987889295,-3.71252292421062
646,806,Cea Bermúdez,Calle de Cea Bermúdez 15,A,0,,2,40.4387741808254,-3.7087955959613597
647,808,José Abascal-Santa Engracia,Calle de José Abascal 10,A,0,,2,40.4384723668506,-3.70065659921342
648,809,José Abascal-Modesto Lafuente,Calle de José Abascal 32,A,0,,2,40.438266943286,-3.6958791038661896
649,810,Gregorio Marañón,Calle de José Abascal 58,A,0,,2,40.438061203333795,-3.69187578612889
650,811,Francisco Silvela-Juan Bravo,Calle de Francisco Silvela 25,A,0,,0,40.431261336298,-3.6716533744766098
651,812,América Española,Calle de Alejandro González 12,A,0,,2,40.4293089156023,-3.6626113527935202
652,813,Sancho Dávila,Calle de Sancho Dávila 20,A,0,,2,40.427528193191,-3.6620751855598996
653,4,Intercambiador de Avenida de América,Avda de América 9 A,A,1,,0,40.43803,-3.6766900000000002
654,11,Buganvilla,Avda de Burgos 6,A,0,,2,40.4716559155998,-3.6758262570833
655,1728,Pío XII,Avda de Pío XII 83,A,0,,2,40.4714419810441,-3.6738894345600097
656,2124,Conde de Casal,Plaza del Conde de Casal 5,A,0,,2,40.4067456013927,-3.66968568623501
657,2125,Conde de Casal,Plaza del Conde de Casal 1,A,0,,2,40.407080833066395,-3.6709147046072
658,2126,Conde de Casal,Plaza del Conde de Casal 8,A,0,,2,40.4067105950365,-3.67106424687038
659,2127,Mediterráneo,Avda del Mediterráneo 29,A,0,,2,40.4073009667482,-3.6733447266718704
660,2128,Mediterráneo,Avda del Mediterráneo 26,A,0,,2,40.4070661605434,-3.6742171026958705
661,2129,Mariano de Cavia,Avda del Mediterráneo 3,A,0,,2,40.407733244875004,-3.67800438072252
662,2130,Mariano de Cavia,Avda del Mediterráneo 2,A,0,,2,40.407355438327606,-3.6779063112392003
663,2131,Nuevos Ministerios-Centro Comercial,Paseo de la Castellana 112,,0,est_90_71,0,40.4468751086437,-3.6906021194844403
664,2132,Paseo de La Habana-Hermanos Pinzón,Paseo de la Habana 26,A,0,,2,40.448920151261895,-3.68908993948956
665,2133,Sagrados Corazones,Paseo de la Habana 56,A,0,,2,40.4514784613716,-3.68609692958131
666,2134,Paseo de La Habana-Centro Universitario,Paseo de la Habana 70,A,0,,2,40.4533527728591,-3.68450022622172
667,2135,Paseo de La Habana-Centro Universitario,Paseo de la Habana 33,A,0,,2,40.4531602475896,-3.6850643706613795
668,2136,Paseo de La Habana-Cochabamba,Paseo de la Habana 74 D,A,0,,2,40.455194365953204,-3.68233699240255
669,2137,Paseo de La Habana-Cochabamba,Paseo de la Habana 74 D,A,0,,2,40.455246470201395,-3.68266775062575
670,2138,Paseo de La Habana-Veracruz,Paseo de la Habana 138,A,0,,2,40.457480101241295,-3.68123960745991
671,2139,Paseo de La Habana-Veracruz,Paseo de la Habana 142,A,0,,2,40.4577118915037,-3.68165474969196
672,2140,Paseo de La Habana-Honduras,Paseo de la Habana 172,A,0,,2,40.4597688021801,-3.6811683261452504
673,2141,Paseo de La Habana-Honduras,Paseo de la Habana 109,A,0,,2,40.4594058962166,-3.68160107232228
674,2142,Paseo de La Habana-Macarena,Paseo de la Habana 196,A,0,,2,40.4623689203297,-3.6802273323509995
675,2143,Paseo de La Habana-Macarena,Paseo de la Habana 145,A,0,,2,40.462494068305396,-3.6803937262927002
676,2144,Paseo de La Habana-Jerez,Paseo de la Habana 206,A,0,,2,40.4646518658991,-3.67960156036933
677,2145,Paseo de La Habana-Jerez,Paseo de la Habana 165,A,0,,2,40.464696007968996,-3.67975534801053
678,2146,Paseo de La Habana-Menéndez Pidal,Paseo de la Habana 179,A,0,,2,40.466735791700295,-3.67911529865585
679,2147,Paseo de La Habana-Menéndez Pidal,Paseo de la Habana 179,A,0,,2,40.4667619174878,-3.6792689095728304
680,2148,Duque de Pastrana,Plaza del Duque de Pastrana 7,A,0,,2,40.468272308397104,-3.67749438210546
681,2149,Duque de Pastrana,Plaza del Duque de Pastrana 6,,0,,0,40.46846366177,-3.6778940585951
682,2150,Estudios Buñuel,Avda de Burgos 4 A,A,0,,2,40.47048323458289,-3.6760858456076497
683,2151,Estudios Buñuel,Avda de Burgos 5,A,0,,2,40.4700040648736,-3.67637596354898
684,41,Lima-Santiago Bernabéu,Paseo de la Castellana 95,A,0,,2,40.45150747774179,-3.69106443432962
685,4337,Gregorio Marañón,Plaza del Doctor Marañón SN,A,0,,2,40.438547101438,-3.6912200894975196
686,46,AZCA,Plaza de Pablo Ruiz Picasso 1,A,0,,2,40.4494255861214,-3.69120087719264
687,48,Nuevos Ministerios-Centro Comercial,Paseo de la Castellana 71,A,0,est_90_71,2,40.4466039997913,-3.69149742115174
688,5333,Emilio Castelar,Paseo de la Castellana 52,A,0,,2,40.4358334836851,-3.68851551235673
689,5443,Cibeles,Paseo del Prado 1,,0,,0,40.4187211357625,-3.6929959758916495
690,76,Banco de España,Paseo del Prado 2,A,0,,2,40.4178262788003,-3.69424254322182
691,96,Sagrados Corazones,Avda de Concha Espina 2,A,0,,2,40.452096564216205,-3.68669029756152
692,2152,Felipe II,Avda de Felipe II 6,A,0,,2,40.4239388403143,-3.67675215074784
693,2153,Felipe II,Avda de Felipe II 1,A,0,,2,40.424315491017104,-3.6762770069232498
694,2154,O Donnell-Narváez,Calle de Narváez 30,A,0,,2,40.4211130591088,-3.6762287859413396
695,2155,O Donnell-Narváez,Calle de Narváez 29,A,0,,2,40.421205414954,-3.6758407031784097
696,2159,Sainz de Baranda-Narváez,Calle del Alcalde Sáinz de Baranda 17,A,0,,2,40.417119307452005,-3.6759273397478904
697,2161,Sainz de Baranda-Maiquez,Calle del Alcalde Sáinz de Baranda 41,A,0,,2,40.416969977034995,-3.6729502868652
698,2163,Metro Sainz de Baranda,Calle del Alcalde Sáinz de Baranda 65,A,0,,2,40.4167928367263,-3.6700952646382405
699,2164,Marqués de Lozoya,Calle del Alcalde Sáinz de Baranda 72,A,0,,2,40.417230343831,-3.6676570340326298
700,2165,Marqués de Lozoya,Calle del Alcalde Sáinz de Baranda 91,A,0,,2,40.4174693694706,-3.6676074542297
701,2166,Sainz de Baranda-Parque Roma,Calle del Alcalde Sáinz de Baranda SN,A,0,,2,40.418716135128996,-3.66543094071694
702,2167,Sainz de Baranda-Parque Roma,Calle del Alcalde Sáinz de Baranda 107,A,0,,2,40.418749594923604,-3.66587919980757
703,2168,Torrespaña,Calle del Alcalde Sáinz de Baranda 92,A,0,,2,40.421338452295,-3.6621678558361803
704,2169,Torrespaña,Calle del Alcalde Sáinz de Baranda 92,A,0,,2,40.4215634973385,-3.66219952869379
705,2711,Sol-Sevilla,,,0,,0,40.4174950432909,-3.6983883097686805
706,4055,Escuelas Aguirre-Casa Árabe,,,0,,0,40.4219497064021,-3.68257477195661
707,4369,Santa Prisca,Calle de Santa Prisca 6,A,0,,2,40.4269879591729,-3.64929054103234
708,4370,Santa Prisca,Calle de Santa Prisca 3,A,0,,2,40.427249075108,-3.64931662555871
709,4474,La Elipa,Avda de Daroca 83,A,0,,2,40.427594071103,-3.6472332516876502
710,751,Escuelas Aguirre-Casa Árabe,Calle de Alcalá 66,A,0,,2,40.4224644629508,-3.68083345910089
711,778,Metro Príncipe de Vergara,Calle de Alcalá 129,A,0,,2,40.4232686938386,-3.67965350171125
712,958,Marqués de Corbera-Ricardo Ortiz,Avda del Marqués de Corbera 10,A,0,,2,40.422780404452205,-3.65574553594217
713,959,Marqués de Corbera-Ricardo Ortiz,Avda del Marqués de Corbera 3,A,0,,2,40.423021766084396,-3.6560779500376
714,960,Marqués de Corbera-Montejurra,Avda del Marqués de Corbera 32,A,0,,2,40.4243152430574,-3.65356773173308
715,961,Marqués de Corbera-Montejurra,Avda del Marqués de Corbera 27,A,0,,2,40.4245923788676,-3.6539476461088105
716,962,Marqués de Corbera-Gerardo Cordón,Avda del Marqués de Corbera 48,A,0,,2,40.425844115101704,-3.6516424954059796
717,963,Marqués de Corbera-Gerardo Cordón,Avda del Marqués de Corbera 49,A,0,,2,40.4260815440081,-3.65187540321302
718,965,Metro La Elipa,Avda del Marqués de Corbera 59,A,0,,2,40.426952994264,-3.650704893906
719,111,Plaza del Perú,Avda de Pío XII 1,A,0,,0,40.4608578729134,-3.6767325970791602
720,112,Plaza del Perú,Avda de Pío XII 2,A,0,,2,40.4609141289471,-3.67635572069902
721,114,Pío XII-Centro Comercial,Avda de Pío XII 23,A,0,,2,40.4625945583984,-3.6763120937352403
722,115,Pío XII-Centro Comercial,Avda de Pío XII SN,A,0,,2,40.4625421737283,-3.67602627093316
723,116,Pío XII-Comandante Franco,Avda de Pío XII 49,A,0,,2,40.4652014135894,-3.67575356647983
724,117,Pío XII-Comandante Franco,Avda de Pío XII 18 B,A,0,,2,40.465568479559295,-3.67537608643268
725,118,Nunciatura,Avda de Pío XII 77,A,0,,2,40.46866800672729,-3.67375411495808
726,119,Nunciatura,Avda de Pío XII 46,A,0,,2,40.4683354406065,-3.6736225127852404
727,3629,Pío XII-La Paloma,Avda de Pío XII 92,A,0,,2,40.4718294126849,-3.6738815036345898
728,414,Plaza de Cataluña,Calle del Príncipe de Vergara 204,A,0,,2,40.4496094509466,-3.6776223622324995
729,415,Plaza de Cataluña,Calle del Príncipe de Vergara 203,A,0,,2,40.4492738574589,-3.67800853381629
730,417,Santa Gema,Avda del Doctor Arce 31,A,0,,2,40.4475363590059,-3.68086814417561
731,418,Doctor Arce,Avda del Doctor Arce 12,A,0,,2,40.446204549616,-3.68214010281773
732,430,Velázquez-López de Hoyos,Calle de Velázquez 136,A,0,,2,40.4398228001346,-3.68271244057554
733,431,Velázquez-Joaquín Costa,Calle de Velázquez 144,A,0,,2,40.441471767868,-3.68265834291668
734,432,Velázquez-Rodríguez Marín,Calle de Velázquez 150,A,0,,2,40.4432023673969,-3.6825107322859596
735,443,República Argentina,Calle de Serrano 141,A,0,,2,40.4445156237075,-3.68590833175354
736,444,Ramiro de Maeztu,Calle de Serrano 127,A,0,,2,40.4425593202629,-3.6861361095357297
737,445,Residencia de Estudiantes,Calle de Serrano 113,A,0,,2,40.44078381411121,-3.68625958718071
738,4831,República Dominicana,Calle del Príncipe de Vergara 285,A,0,,2,40.4594060639644,-3.67696574449421
739,4832,República Dominicana,Calle del Príncipe de Vergara 278,A,0,,2,40.459381658095204,-3.6765173002773
740,515,Príncipe de Vergara-Serrano,Calle del Príncipe de Vergara 248,A,0,,2,40.453909317842005,-3.67718193279011
741,517,Concha Espina,Calle del Príncipe de Vergara 210,A,0,,2,40.451430403449294,-3.67742833988118
742,520,Fernández de los Ríos-Hilarión Eslava,Calle de Fernández de los Ríos 93,A,0,est_90_14,2,40.4355125614956,-3.7169020352775095
743,521,Guzmán El Bueno-Fernández de los Ríos,Calle de Fernández de los Ríos 65,A,0,,2,40.435367201822,-3.7134525053594
744,522,Galileo,Calle de Fernández de los Ríos 35,A,0,,2,40.4351420514227,-3.7090404911923303
745,523,Arapiles,Calle de Fernández de los Ríos 3,A,0,,2,40.43491501003071,-3.7049114566577406
746,524,Eloy Gonzalo,Calle del Cardenal Cisneros 63,A,0,,2,40.4342157508152,-3.70286296806589
747,525,Iglesia,Calle de Eloy Gonzalo 36,A,0,,2,40.434685086749795,-3.6997448641147
748,526,Iglesia,Calle de Eloy Gonzalo 35,A,0,,2,40.43490979924471,-3.69982972265329
749,534,López de Hoyos-Velázquez,Calle de López de Hoyos 30,A,0,,2,40.438518691954705,-3.6838665889168705
750,536,Doctor Arce,Avda del Doctor Arce 11,A,0,,2,40.4460806260756,-3.68329450742494
751,537,General Oráa-Emilio Castelar,Calle del General Oraa 1,A,0,,2,40.435944500124606,-3.68802622641627
752,538,Quevedo,Calle de Eloy Gonzalo 3,A,0,,2,40.434133091158294,-3.7031229693386503
753,540,Arapiles,Calle de Fernando el Católico 1,A,0,,2,40.433971811592,-3.7059391681124403
754,541,Mercado Vallehermoso,Calle de Fernando el Católico 21,A,0,,2,40.434212883199294,-3.7092429734627794
755,542,Guzmán El Bueno-Fernando El Católico,Calle de Fernando el Católico 52,A,0,,2,40.434406568273296,-3.71291180347445
756,543,Moncloa,Calle de Fernando el Católico 84,A,0,est_90_14,2,40.4346153799561,-3.71702884894142
757,1151,Guabairo,Calle de Guabairo 34,A,0,,2,40.3854266917558,-3.74615306977671
758,2589,Toledo-La Paloma,Calle de Toledo 108,A,0,,2,40.40752373931829,-3.71142752402291
759,3124,Blas Cabrera-Avenida de las Águilas,Avda del General Fanjul 99,B1,0,,2,40.3819192152318,-3.77607173661407
760,365,Blas Cabrera-Rafael Finat,Calle del General Romero Basart 85,A,0,,2,40.3779482914937,-3.77239233482866
761,366,Blas Cabrera-Rafael Finat,Calle del General Romero Basart 54,A,0,,2,40.3779329420137,-3.7726675282961804
762,371,Las Águilas-Cercanías,Avda del General Fanjul 145,A,0,,2,40.3810198394382,-3.77986669646112
763,372,Las Águilas-Cercanías,Avda del General Fanjul 112,A,0,,2,40.381592406778296,-3.7804623441712795
764,3833,Las Águilas,Avda del General Fanjul 52,B1,0,,2,40.382126630159895,-3.77872488281326
765,3834,Las Águilas,Avda del General Fanjul 60,A,0,,2,40.3821160371109,-3.7789603849377595
766,3835,Fuente del Tiro-Fuente de Lima,Calle de la Fuente del Tiro 17,A,0,,2,40.3837361600495,-3.78052239203271
767,3836,Fuente del Tiro-Fuente de Lima,Calle de la Fuente de Lima 44,A,0,,2,40.383492854759496,-3.78053136949072
768,3837,Fuente del Tiro-Paseo de Extremadura,Calle de la Fuente del Tiro 3,A,0,,2,40.3843839942589,-3.7819789937431003
769,3838,Parque Europa,Calle de la Fuente de Lima 22,A,0,,2,40.3828780063569,-3.78219723220221
770,4505,Junta Municipal Latina,Avda del General Fanjul 2 A,A,0,,2,40.384862703830706,-3.7642530972348194
771,4528,Carabanchel-Hospital Militar,Calle de Guabairo 4,,0,,0,40.3875903683872,-3.7452207117736602
772,4543,Ocaña-Diamante,Calle de Ocaña 37,A,0,,2,40.3842100131707,-3.7552563947962896
773,4544,Ocaña-Diamante,Calle de Ocaña 12,A,0,,2,40.38413994306129,-3.75494929290509
774,4705,Nuestra Señora de la Luz,Calle de Nuestra Señora de la Luz 55,A,0,,2,40.386501907931,-3.7519358734664396
775,4706,Metro Eugenia de Montijo,Calle de Nuestra Señora de la Luz 47,A,0,,2,40.3854172401722,-3.7497088555783598
776,4711,Vía Carpetana-Tucán,Calle  Vía Carpetana 185,A,0,,2,40.3898971404695,-3.74374934260623
777,4780,Toledo-La Paloma,Calle del Capitán Salazar Martínez 1,A,0,,2,40.407633657350104,-3.71113293266234
778,4881,Nuestra Señora de la Luz,Calle de Nuestra Señora de la Luz 118,A,0,,2,40.3866826883087,-3.7518436246245597
779,5064,Aluche,Calle de Ocaña 2,A,0,est_90_1,2,40.385876517322394,-3.76010222806686
780,544,Plaza Mayor,Calle de Concepción Jerónima 26,A,0,,2,40.413929961863396,-3.70688514013632
781,545,La Latina,Calle de Toledo 54,A,0,,2,40.4115965583065,-3.7083694204266
782,546,La Latina,Calle de Toledo 55,A,0,,2,40.4118694790403,-3.70793617996001
783,547,Toledo-Humilladero,Calle de Toledo 82,A,0,,2,40.4088942791093,-3.71050421569425
784,548,Toledo-Humilladero,Calle de Toledo 97,A,0,,2,40.4096242690145,-3.70972774071859
785,549,Puerta de Toledo,Paseo de Pontones 2,A,0,,2,40.4066511070505,-3.71269008095662
786,550,Imperial-Pontones,Paseo de Pontones 10,A,0,,2,40.404952770463794,-3.7156328630794198
787,5506,Vía Carpetana-La Campana,Calle   Vía Carpetana 105,A,0,,2,40.394487311187795,-3.7388153976401
788,551,Imperial-Pontones,Paseo de Pontones 29,A,0,,2,40.404768986631105,-3.71548691990537
789,552,Puente San Isidro-Pontones,Paseo de Pontones 26,A,0,,2,40.404277743326,-3.7198882446495802
790,553,Puente San Isidro-Pontones,Paseo de Pontones SN,A,0,,2,40.404039085554295,-3.71987502622474
791,554,Puente San Isidro-Ermita del Santo,Paseo de la Ermita del Santo SN,A,0,,2,40.4038922087533,-3.72464639606415
792,555,Vía Carpetana-Caramuel,Calle  Vía Carpetana SN,A,0,,0,40.4017629246485,-3.73088124723997
793,556,Via Carpetana-Caramuel,Calle  Vía Carpetana SN,A,0,,2,40.4018940232207,-3.73009309019138
794,557,Polideportivo Gallur,Calle  Vía Carpetana 54,A,0,,2,40.3982383302884,-3.73547431703291
795,558,Polideportivo Gallur,Calle  Vía Carpetana 57,A,0,,2,40.3984356071861,-3.7349100888569504
796,559,Via Carpetana-Centro de Salud,Calle  Vía Carpetana 202,A,0,,2,40.3966034720849,-3.7375540625615495
797,560,Via Carpetana-Centro de Salud,Calle  Vía Carpetana 81,A,0,,2,40.3962159592594,-3.73757340837561
798,561,Vía Carpetana-La Campana,Calle  Vía Carpetana 224,,0,,0,40.3951642967907,-3.73861068215611
799,563,Metro Vía Carpetana,Calle   Vía Carpetana 137,A,0,,2,40.3937849337127,-3.74017459019104
800,564,Vía Carpetana-Laguna,Calle de León V de Armenia 2,A,0,,2,40.391796052169205,-3.7426574519980895
801,565,Vía Carpetana-Laguna,Calle   Vía Carpetana 145 C,A,0,,2,40.3922704232039,-3.741736954289
802,566,Vía Carpetana-Tucán,Calle  Vía Carpetana SN,A,0,,2,40.3898315837336,-3.7441374469391797
803,570,Ocaña,Calle de Ocaña 69,A,0,,0,40.3852471812636,-3.75370098756938
804,571,Ocaña,Calle de Ocaña 98,A,0,,0,40.3855841575206,-3.75314141976811
805,572,Ocaña-Camarena,Calle de Ocaña 21,A,0,,2,40.384462793597,-3.75793364012027
806,573,Ocaña-Camarena,Calle de Ocaña 21,A,0,,2,40.3843361360528,-3.7580146938739003
807,574,Ocaña-Intercambiador de Aluche,Calle de Ocaña 15,A,0,est_90_1,2,40.385498584889206,-3.7593472652424995
808,575,Intercambiador de Aluche,Calle de Valmojado SN,A,0,est_90_1,2,40.386365980463204,-3.76102119047272
809,578,Rafael Finat-Avenida de las Águilas,Calle de Rafael Finat 2,A,0,,2,40.3837209547469,-3.7652534210864
810,579,Rafael Finat-Avenida de las Águilas,Calle de la Vidauba 2,A,0,,2,40.3839064916066,-3.7644425929559304
811,580,Rafael Finat-Valle Inclán,Calle de Rafael Finat 36,A,0,,2,40.381595990358,-3.7677976950904397
812,581,Rafael Finat-Valle Inclán,Calle de Rafael Finat 23,A,0,,2,40.3815889196226,-3.76750529617302
813,582,Rafael Finat-José de Cadalso,Calle de Rafael Finat 46 A,A,0,,2,40.378999320287,-3.7708194525913705
814,583,Rafael Finat-José de Cadalso,Calle de Rafael Finat 67,A,0,,2,40.3791650770289,-3.7702794272444904
815,584,Blas Cabrera-Oliva de Plasencia,Calle del General Romero Basart 63,A,0,,2,40.37963156521,-3.77462852109567
816,585,San Ignacio,Calle del General Romero Basart 69, ,0,,2,40.378837151665,-3.7741964384427593
817,587,Blas Cabrera-Avenida de las Águilas,Calle del General Romero Basart SN,A,0,,2,40.381878592709604,-3.7754115264333703
818,588,Fátima-Nuestra Señora de la Luz,Calle de Nuestra Señora de la Luz 39,A,0,,2,40.384574537182004,-3.74767345399338
819,5880,Fátima-Nuestra Señora de la Luz,Calle de Nuestra Señora de la Luz 39,,0,,0,40.3846607281206,-3.7475797840597997
820,5881,Metro Eugenia de Montijo,Calle de Nuestra Señora de la Luz 47,,0,,0,40.3853711913881,-3.74916785686257
821,589,Guabairo,Avda de Nuestra Señora de Fátima 31,A,0,,2,40.385134918504896,-3.7459944837170203
822,590,Carabanchel-Hospital Militar,Paseo de Muñoz Grandes 62,A,0,,2,40.387749651216104,-3.74426773871727
823,592,Vía Carpetana-Ermita del Santo,Calle  Vía Carpetana SN,A,0,,2,40.4054388587096,-3.7251107956603904
824,593,Puerta de Toledo,Calle de Toledo 129,A,0,,2,40.405900266137294,-3.71172755977872
825,1,Aluche,Calle de Valmojado 293,A,1,,0,40.38563,-3.76085
826,1117,Pirámides-Yeserías,Gta de las Pirámides SN,A,0,,2,40.4005339501178,-3.7141536038204803
827,1118,Parque de la Arganzuela,Paseo de Yeserías 6,A,0,,2,40.3984133308373,-3.70885602339176
828,1119,Parque de la Arganzuela,Paseo de Yeserías 35,A,0,,2,40.398603678713606,-3.70866689297287
829,1120,La Chopera-Puente Praga,Paseo de la Chopera 2,A,0,,2,40.396226644552605,-3.70252885745852
830,1121,La Chopera-Puente Praga,Paseo de la Chopera SN,A,0,,2,40.3964981860688,-3.70231956763893
831,1132,Hospital 12 de Octubre,Avda de Córdoba 49,A,0,,2,40.3766178803632,-3.69589347665454
832,1134,Avenida de Andalucía-San Fermín,Avda de Andalucía 20,A,0,,2,40.3735490359636,-3.69459968859494
833,1135,San Fermín-Orcasur,Avda de Andalucía SN,A,0,,2,40.3704716840409,-3.6947231182989597
834,1136,San Fermín-Orcasur,Avda de Andalucía 9,A,0,,2,40.3703077753723,-3.69426278649922
835,1137,Avenida de Andalucía-Avenida los Rosales,Avda de Andalucía 32 A,A,0,,2,40.368022343875104,-3.6945331094830496
836,1138,Avenida de Andalucía-Avenida los Rosales,Avda de Andalucía SN,A,0,,2,40.3682505935261,-3.69402895924957
837,1139,Verbena de la Paloma-La Chulapona,Avda de La Verbena de la Paloma 6,A,0,,2,40.360647045048296,-3.69550574556457
838,1140,Verbena de la Paloma-La Chulapona,Avda de La Verbena de la Paloma 3,A,0,,2,40.360386503399894,-3.6953852982886897
839,1141,Verbena de la Paloma-Soto del Parral,Avda de La Verbena de la Paloma 16,A,0,,2,40.3586337025267,-3.6962226358415
840,1142,Verbena de la Paloma-Soto del Parral,Avda de La Verbena de la Paloma 27,A,0,,2,40.358023286287,-3.69585569611721
841,1143,Bohemios-La del Manojo de Rosas,Calle de Bohemios 16,A,0,,2,40.3565495395272,-3.69673045460513
842,1144,La del Manojo de Rosas-Doña Francisquita,Calle de La del Manojo de Rosas 76,A,0,,2,40.354978897346605,-3.69798581097473
843,1145,La del Manojo de Rosas-Anoeta,Calle de La del Manojo de Rosas 120,A,0,,2,40.3530502078141,-3.69885469216532
844,1147,Alegría de la Huerta-Anoeta,Calle de La Alegría de la Huerta 37,A,0,,2,40.3535501216558,-3.69512677059448
845,1148,Alegría de la Huerta-Bohemios,Calle de La Alegría de la Huerta 1,A,0,,2,40.356197085991504,-3.6954137290175004
846,1189,Virgen de los Desamparados-Totanes,Calle de la Virgen de los Desamparados 4,A,0,,2,40.3514012112656,-3.69890835456021
847,1190,Virgen de los Desamparados-Totanes,Calle de la Virgen de los Desamparados 4,A,0,,2,40.3510334929895,-3.69863372121108
848,1787,Alcocer-Virgen Desamparados,Calle de Alcocer 13,A,0,,2,40.3500392326342,-3.69767885159912
849,1788,Alcocer-Virgen Desamparados,Calle de Alcocer 26,A,0,,2,40.3500921870603,-3.6978615510031
850,1789,Alcocer-Escoriaza,Calle de Alcocer 1,A,0,,2,40.3511899770869,-3.6943338372817998
851,1790,Alcocer-Villaverde Cruce,Calle de Alcocer 8,A,0,,2,40.3512468895336,-3.6946085766263104
852,3878,Anoeta-Arechavaleta,Calle de Anoeta 21,A,0,,2,40.35269480271471,-3.69653518438742
853,3880,Villaverde Cruce,Calle de Santa Petronila 9,A,0,,2,40.3507094581845,-3.69258316077352
854,4481,Toledo-Pasillo Verde,Calle de Toledo 161,A,0,,2,40.4030182265562,-3.7130525163272203
855,4484,Puente Praga,Paseo de Yeserías 63,A,0,,2,40.3970517652035,-3.70462315696119
856,4485,Puente Praga,Paseo de Yeserías 59,A,0,,2,40.3972858428111,-3.7046491607379197
857,4518,Yeserías,Paseo de Yeserías SN,A,0,,2,40.399579861853105,-3.7110836801129903
858,4519,Yeserías,Paseo de Yeserías 13,A,0,,2,40.399806593075205,-3.71083859108995
859,4728,Avenida de Andalucía-Centro Comercial,Avda de Andalucía 38,A,0,,2,40.362010638620205,-3.69346672912085
860,5378,Glorieta de Málaga,Avda de Córdoba 49,A,0,,2,40.3751251493684,-3.69543050598763
861,5379,Glorieta de Málaga,Acces de Nudo Sur SN,B1,0,,2,40.375454616708005,-3.69457394209866
862,5380,Hospital 12 Octubre,Avda de Córdoba 49,A,0,,2,40.376853875937,-3.6956006562685
863,5507,Pirámides,Calle de Toledo 178,,0,,0,40.4020293319262,-3.7141734305067495
864,5702,Avenida de Córdoba,Avda de Córdoba 25,A,0,,2,40.382154455732,-3.6973110795695
865,5703,Almendrales,Avda de Córdoba 15,A,0,,2,40.3841024114271,-3.6977283913682997
866,5704,Glorieta de Cádiz,Avda de Córdoba 3 A,A,0,,2,40.387685153803794,-3.6989523541178
867,5718,Glorieta de Cádiz,Avda de Córdoba 2,,0,,0,40.387556405234,-3.69938659789379
868,5719,Almendrales,Avda de Córdoba 21,A,0,,2,40.3837658743102,-3.6982595114029597
869,5720,Avenida de Córdoba,Avda de Córdoba 27,A,0,,2,40.381913667811,-3.69765099208962
870,594,Puerta de Toledo,Calle de Toledo 118,A,0,,2,40.4061679777909,-3.7121439693935696
871,912,Plaza Mayor,Calle del Duque de Rivas 3,A,0,,2,40.4135773029372,-3.7063609990175097
872,914,Toledo-Pasillo Verde,Calle de Toledo 140,A,0,,2,40.404026087020505,-3.7132399089073904
873,915,Toledo-Santa Casilda,Calle de Toledo 141,A,0,,2,40.4043548782974,-3.71251453852956
874,917,Pirámides,Calle de Toledo 185,A,0,,2,40.4016351045896,-3.7138212566635493
875,947,Pirámides-Yeserías,Paseo de Yeserías 1,A,0,,2,40.4007292755296,-3.71315803541376
876,1166,Intercambiador de Atocha,Avda de la Ciudad de Barcelona 2 B,A,0,est_90_54,2,40.4077266719056,-3.69055277216713
877,1171,Legazpi ,Paseo de las Delicias 139,A,0,,2,40.3921473700572,-3.6947569029557097
878,1183,Estación de Delicias,Paseo de las Delicias 61 A,A,0,,2,40.400319382129,-3.6938751729579704
879,2171,Puerta de Alcalá,Calle de Alfonso XII 2,A,0,,2,40.41908296984639,-3.68897455750128
880,2172,Casón del Buen Retiro,Calle de Alfonso XII 22,A,0,,2,40.4164421476206,-3.68917162425479
881,2173,Casón del Buen Retiro,Calle de Alfonso XII 20,A,0,,2,40.4166240707829,-3.68887879588879
882,2174,Alfonso XII-Jardín Botánico,Calle de Alfonso XII 48,A,0,,2,40.4126591377659,-3.6890388045750697
883,2175,Alfonso XII-Jardín Botánico,Calle de Alfonso XII SN,A,0,,2,40.412904330391505,-3.6887112762330196
884,2176,Cuesta de Moyano,Calle de Alfonso XII 58,A,0,,2,40.4092185186989,-3.6888977019045095
885,2177,Cuesta de Moyano,Calle de Alfonso XII SN,A,0,,2,40.4092925492225,-3.68856844819089
886,4839,Batalla del Salado-Delicias,Calle de la Batalla del Salado 3,A,0,,2,40.404550770895796,-3.69585535979974
887,5167,Plaza de Cataluña,Plaza de Cataluña 4, ,0,,2,40.4486135475874,-3.67846146236733
888,5700,Intercambiador de Atocha,Calle de Alfonso XII 19,,0,est_90_54,0,40.407777461258,-3.6888318403535
889,159,O Donnell-Retiro,Calle de ODonnell 1,,0,,0,40.421492061820395,-3.68073563076184
890,194,Menéndez Pelayo-Menorca,Avda de Menéndez Pelayo 19,A,0,,2,40.419861514450204,-3.67918607120403
891,195,Menéndez Pelayo-Menorca,Avda de Menéndez Pelayo 19,A,0,,2,40.4196757445474,-3.67937096912257
892,2730,Centro de Especialidades de Moratalaz,Calle de la Hacienda de Pavones 348,B1,0,,2,40.400120661219,-3.6334303012936697
893,2731,Centro de Especialidades de Moratalaz,Calle de la Hacienda de Pavones 253,,0,,0,40.40039928419579,-3.6335507520958705
894,3031,Pavones,Calle de la Hacienda de Pavones 342,B1,0,,2,40.4002986770406,-3.63547067201495
895,3661,Arroyo Fontarrón-Tacona,Calle del Arroyo Fontarrón 18,A,0,,2,40.3962434016455,-3.64222003881773
896,814,Menéndez Pelayo-Sainz de Baranda,Avda de Menéndez Pelayo 45,A,0,,2,40.4168660269089,-3.67841413988759
897,815,Menéndez Pelayo-Sainz de Baranda,Avda de Menéndez Pelayo 45,A,0,,2,40.4168318673982,-3.6780936987328396
898,816,Hospital Niño Jesús,Avda de Menéndez Pelayo 63,A,0,,2,40.4144296165975,-3.67755284567656
899,817,Hospital Niño Jesús,Avda de Menéndez Pelayo 63,A,0,,2,40.414944412377,-3.67733404781529
900,818,Plaza Niño Jesús,Plaza del Niño Jesús 6,A,0,,2,40.4111569193339,-3.6756523198674302
901,819,Plaza Niño Jesús,Plaza del Niño Jesús 3,A,0,,2,40.411191082516,-3.6752010979463194
902,820,Nazaret,Avda de Nazaret 8,A,0,,2,40.4113669196773,-3.67129899508809
903,821,Nazaret,Avda de Nazaret 9 A,A,0,,2,40.411604555841606,-3.6707120330048104
904,822,Astros,Calle de los Astros 2,A,0,,2,40.4112545745219,-3.6689170436095697
905,823,Astros-Cruz del Sur,Calle de los Astros 7,A,0,,2,40.4115810597417,-3.6685431062901603
906,824,Estrella,Calle de la Estrella Polar SN,A,0,,2,40.4110851520649,-3.66548555754854
907,825,Estrella,Calle de la Estrella Polar 13,A,0,,2,40.411337662369,-3.6654408950504305
908,826,Vinateros-Centro Comercial,Calle del Camino de los Vinateros 12,A,0,,2,40.4107012442516,-3.66015440734717
909,827,Vinateros-Calle 30,Calle del Camino de los Vinateros 3,A,0,,2,40.4109335050283,-3.6589191143231803
910,828,Corregidor Diego Valderrábano-Lituania,Calle del Corregidor Diego de Valderrábano 7,A,0,,2,40.409488939677296,-3.66025712876944
911,829,Corregidor Diego Valderrábano-Lituania,Calle del Corregidor Diego de Valderrábano SN,A,0,,2,40.409341555744604,-3.66003507204403
912,830,Avenida de Moratalaz-Diego Valderrábano,Avda de Moratalaz SN,A,0,,2,40.4077092925653,-3.6611093339022003
913,831,Avenida de Moratalaz-Diego Valderrábano,Avda de Moratalaz 21,A,0,,2,40.4078245557683,-3.66064492340343
914,832,Corregidor Alonso Aguilar,Avda de Moratalaz 40,A,0,,2,40.407246922466,-3.65924858186906
915,837,Hacienda de Pavones-Alonso de Tobar,Calle de la Hacienda de Pavones 8 H,A,0,,2,40.4043963047313,-3.64874383929415
916,838,Hacienda de Pavones-Cañada,Calle de la Hacienda de Pavones 74,A,0,,2,40.4036029792652,-3.64561321337453
917,839,Hacienda de Pavones-Cañada,Calle de la Hacienda de Pavones 93,A,0,,2,40.4038007743239,-3.64568580972561
918,840,Corregidor Conde Maceda,Plaza del Corregidor Conde de Maceda y Taboada SN,A,0,,2,40.4028940288109,-3.6434969606328194
919,841,Corregidor Conde Maceda,Plaza del Corregidor Conde de Maceda y Taboada SN,A,0,,2,40.4034083701677,-3.64334864463965
920,843,Encomienda de Palacios-Pico Artilleros,Calle de la Encomienda de Palacios 33,A,0,,2,40.4010456933161,-3.6437622234870695
921,845,Arroyo Fontarrón-Pío Felipe,Calle del Arroyo Fontarrón 169,A,0,,2,40.398440261580795,-3.6457053977777796
922,846,Arroyo Fontarrón 245,Calle del Arroyo Fontarrón SN,B1,0,,2,40.3969280834381,-3.64384459957712
923,847,Fuente Carrantona-Arroyo Fontarrón,Calle de la Fuente Carrantona 2,A,0,,2,40.396323601222,-3.6391216785770295
924,851,Hacienda de Pavones-Alonso de Tobar,Calle de la Hacienda de Pavones 19,A,0,,2,40.4046657703704,-3.64888784364002
925,852,Plaza del Encuentro,Calle de la Hacienda de Pavones 3,A,0,,2,40.4057452312983,-3.65078384930179
926,853,Plaza del Encuentro,Calle de la Hacienda de Pavones 4 A,A,0,,2,40.405401514302795,-3.65102803660689
927,1217,Marqués de Urquijo,Calle del Marqués de Urquijo 21,A,0,,2,40.42986705296261,-3.71857524850684
928,1218,Marqués de Urquijo-Teleférico,Calle del Marqués de Urquijo 34,A,0,,2,40.42976089012161,-3.7197125473110004
929,1219,Argüelles,Calle de Alberto Aguilera 39,A,0,,2,40.4305431917478,-3.7155911724200803
930,1220,Argüelles,Calle de Alberto Aguilera 70,A,0,,2,40.4307710040339,-3.7151724693189
931,1221,Alberto Aguilera-Blasco de Garay,Calle de Alberto Aguilera 50,A,0,,2,40.4304551625293,-3.7123348218276604
932,1222,Alberto Aguilera-Galileo,Calle de Alberto Aguilera 23,A,0,,2,40.430022052232,-3.7109792472542202
933,1223,Metro San Bernardo,Calle de Alberto Aguilera 1,A,0,,2,40.42963335710721,-3.70677809325472
934,1224,Metro San Bernardo,Calle de Alberto Aguilera 8,A,0,,2,40.4299376154292,-3.7071135915297204
935,1227,Sagasta,Calle de Sagasta 16,A,0,,2,40.4282661873389,-3.6989946705600603
936,1229,Alonso Martínez,Calle de Génova 4,A,0,,2,40.4273254686981,-3.6951328543129303
937,1230,Alonso Martínez,Calle de Génova 3,A,0,,2,40.42756006043879,-3.69507337225326
938,1232,Metro Colón,Calle de Génova 29,A,0,,2,40.426046835292,-3.6920162868582898
939,1233,Ventas,Avda de los Toreros 79,A,0,,2,40.431592589641,-3.6618438041762595
940,1234,Puente Calero,Calle de Roberto Domingo SN,A,0,,2,40.43495,-3.6609300000000005
941,1235,Puente Calero,Calle de Roberto Domingo 3,A,0,,2,40.4349838352796,-3.6611695650324303
942,1236,Avenida Donostiarra,Avda de Donostiarra 10,A,0,,2,40.434927482824,-3.65841041491818
943,1237,Avenida Donostiarra,Avda de Donostiarra 11,A,0,,2,40.4351342097049,-3.65849496112148
944,1238,Virgen de Lluc-José Banús,Calle de la Virgen de Lluc 6,A,0,,2,40.4344227772641,-3.65526889349189
945,1239,Virgen de Lluc-José Banús,Calle de la Virgen de Lluc SN,A,0,,2,40.4347553591248,-3.6554018107824997
946,1240,Virgen de Lluc-José del Hierro,Calle de la Virgen de Lluc 32,A,0,,2,40.43482631899921,-3.6524077256094998
947,1241,José del Hierro-Polideportivo,Calle de la Virgen del Sagrario 22,A,0,,2,40.4364918455052,-3.64940536530066
948,1242,Virgen del Sagrario-Virgen del Castañar,Calle de la Virgen del Sagrario 32,A,0,,0,40.4382944867086,-3.65086118556454
949,1243,Juan Pérez de Zúñiga-Torrelaguna,Calle de Juan Pérez Zúñiga 1,A,0,,2,40.4407161883091,-3.64956385165916
950,1244,Virgen de la Novena,Calle de la Virgen de la Novena 7,A,0,,2,40.4401238067771,-3.6491690454621
951,1246,Juan Pérez de Zúñiga,Calle de Juan Pérez Zúñiga 19,A,0,,2,40.4426412174717,-3.6484739160161603
952,1248,Juan Pérez de Zúñiga-Arturo Soria,Calle de Juan Pérez Zúñiga 49,A,0,,2,40.444939473061,-3.64669175228402
953,1250,Marqués de Portugalete,Calle del Marqués de Portugalete 14,A,0,,2,40.4468580292362,-3.6451416966861703
954,1324,Barrio de la Concepción,Calle de la Virgen de la Fuencisla 17,A,0,,0,40.4380947745531,-3.65113045664408
955,1325,Alberto Aguilera-Galileo,Calle de Alberto Aguilera 28,A,0,,2,40.4302170887696,-3.71002633874892
956,229,Arturo Soria-Josefa Valcárcel,Calle de Arturo Soria 110 A,A,0,,2,40.447151980410794,-3.64896530476758
957,231,Arturo Soria-Juan Pérez de Zúñiga,Calle de Arturo Soria 90 G,A,0,,2,40.4451795505773,-3.6456445380179603
958,2477,José Banús,Avda de Donostiarra 26,A,0,,2,40.4346135529246,-3.65657947712092
959,2478,José Banús,Avda de Donostiarra 27,A,0,,2,40.4349469354011,-3.65657092345434
960,2967,Bilbao,Calle de Carranza 3,,0,,0,40.429067618848705,-3.7027770416744197
961,3659,Fernández Caro-Francisco Luján,Calle de Fernández Caro 16,B1,0,,2,40.442170032137,-3.64734918235231
962,3660,Fernández Caro-Agastia,Calle de Fernández Caro 38,B1,0,,2,40.4432562596836,-3.64642802123007
963,4026,Romero Robledo,Calle de Romero Robledo 24,A,0,,2,40.4312831924966,-3.7226408293693902
964,4232,Pintor Rosales,Paseo del Pintor Rosales 54,,0,,0,40.4299982037401,-3.7228337837799703
965,4233,Marqués de Urquijo-Teleférico,Calle del Marqués de Urquijo 43,,0,,0,40.429169403581,-3.7206611963345404
966,4520,Virgen de Lluc-Argentina,Calle de la Virgen de Lluc 58,A,0,,2,40.4352391953924,-3.6494758698312904
967,4521,Felipe II,Calle de Goya 89,A,0,,2,40.425067107847795,-3.67638619885408
968,5040,El Salvador,Calle de José María Cavero 18,A,0,,2,40.4480696120627,-3.6467799239228498
969,5146,Alcalá-Parque Bomberos,Calle de Alcalá 217, ,0,,2,40.429740815150296,-3.6658459211923398
970,5153,Arturo Soria-Pilar Cavero,Calle de Arturo Soria 100, ,0,,2,40.445945398259504,-3.6472438250282
971,5627,Metro Colón,Calle de Génova 30,A,0,,2,40.425254112805206,-3.6912500123058902
972,670,Colón,Calle de Goya 2,A,0,,2,40.4253926354518,-3.68841291004979
973,671,Colón,Calle de Goya 7,A,0,,2,40.4257333392431,-3.6886886260902405
974,672,Goya-Velázquez,Calle de Goya 16,A,0,,2,40.4251457825016,-3.68446227473864
975,673,Goya-Velázquez,Calle de Goya 31,A,0,,2,40.4254669517124,-3.6849960204566004
976,674,Goya-Príncipe de Vergara,Calle de Goya 34,A,0,,2,40.4250021895555,-3.68131323424983
977,675,Goya-Príncipe de Vergara,Calle de Goya 63,A,0,,2,40.425259487130496,-3.68045524604706
978,676,Felipe II,Calle de Goya 68,A,0,,2,40.4248025549159,-3.67694941048965
979,678,Alcalá-Goya,Calle de Alcalá 102,A,0,,2,40.4252400556862,-3.67453709256252
980,679,Alcalá-Goya,Calle de Alcalá 153,A,0,,2,40.42537257336,-3.6749863878238602
981,680,Alcalá-Hermosilla,Calle de Alcalá 118,A,0,,2,40.426070390195704,-3.6727298807839
982,681,Alcalá-Hermosilla,Calle de Alcalá 165,A,0,,2,40.4262212059774,-3.67313220443777
983,682,Alcalá-Manuel Becerra,Calle de Alcalá 148,A,0,,2,40.4274928011542,-3.6697967382059504
984,683,Alcalá-Manuel Becerra,Calle de Alcalá 191,A,0,,2,40.4277802554556,-3.6699410551535805
985,684,Manuel Becerra,Calle de Alcalá 197,A,0,,2,40.4288195505694,-3.6678174695903
986,757,Ventas,Calle de Alcalá 206,A,0,,2,40.4311164578004,-3.66318318129544
987,765,Parque Calero,Calle de José del Hierro SN,A,0,,2,40.435229843029106,-3.65274175293338
988,767,José del Hierro-Polideportivo,Calle de José del Hierro SN,A,0,,2,40.436542324902206,-3.65004255033857
989,1172,Avenida de Andalucía-Centro Comercial,Avda de Andalucía 38,A,0,,2,40.360635532797396,-3.6936694430076598
990,1173,Avenida de Andalucía-Centro Comercial,Avda de Andalucía 38,A,0,,2,40.3608401360345,-3.69335243905617
991,1174,Bohemios-Sáhara,Avda de Andalucía 38,A,0,,2,40.3559575551146,-3.6932907345757
992,1175,Bohemios-Sáhara,Avda de Andalucía 38,A,0,,2,40.3562391463222,-3.69290498168755
993,1191,Alcocer-Paseo Talleres,Calle de Alcocer SN,A,0,,2,40.349865533685296,-3.7010816894456
994,1192,Alcocer-Paseo Talleres,Calle de Alcocer 33,A,0,,2,40.34954397826171,-3.6998779945037206
995,1193,Puente Alcocer,Ctra de Carabanchel a Villaverde 109,A,0,,2,40.350142572637,-3.70590190276256
996,1194,Puente Alcocer,Calle de Alcocer 45 A,A,0,,0,40.34990249710721,-3.7053812767321603
997,1195,Doctor Pérez Domínguez,Calle del Doctor Pérez Domínguez 11,A,0,,2,40.3471289715274,-3.70664769715303
998,1197,Plaza de Ágata,Plaza de Ágata SN,A,0,,2,40.3465314145009,-3.70860606210164
999,1198,Doctor Martín Arévalo,Calle del Doctor Martín Arévalo 26,A,0,,2,40.3461842201671,-3.7064494550712097
1000,1425,Legazpi,Plaza de Legazpi 3,,0,,0,40.390897006962796,-3.69519108429706
1001,2179,Alberto Palacios-Aladierna,Paseo de Alberto Palacios 18,A,0,,2,40.3463538088944,-3.7111258964427996
1002,2180,Alberto Palacios-Aladierna,Paseo de Alberto Palacios 19,A,0,,2,40.3461583038386,-3.7114204286678
1003,2181,Alberto Palacios-Juan Peñalver,Paseo de Alberto Palacios 54,A,0,,2,40.3442755705293,-3.71358855731178
1004,2182,Alberto Palacios-Juan Peñalver,Paseo de Alberto Palacios 41,A,0,,2,40.344359185293705,-3.7131773241287203
